store_id,year,store_name,plaace_hierarchy_id,sales_channel_name,grunnkrets_id,address,lat,lon,chain_name,mall_name,revenue
983540538-974187930-44774,2016,MCDONALD'S BRAGERNES TORG MAGASINET,1.1.1.0,Hamburger restaurants,6020303,BRAGERNES TORG 13,59.743104058362704,10.204927885979,MCDONALDS,Magasinet Drammen,17.998
987074191-973117734-44755,2016,MCDONALD'S KLINGENBERGGATA,1.1.1.0,Hamburger restaurants,3010306,KLINGENBERGGATA 4,59.9137594158249,10.7340307646896,MCDONALDS,,23.828000000000003
984890265-981157303-64491,2016,BURGER KING HØNEFOSS,1.1.1.0,Hamburger restaurants,6050102,KONG RINGS GATE 1,60.1647505705996,10.2546558936519,BURGER KING,Kuben Hønefoss,16.099
914057442-992924179-126912,2016,BURGER KING GLASSHUSPASSASJEN,1.1.1.0,Hamburger restaurants,18040102,STORGATA 12,67.28366871498261,14.379796237766,BURGER KING,Glasshuspassasjen,9.296
913018583-913063538-668469,2016,BURGER KING TILLERTORGET,1.1.1.0,Hamburger restaurants,16017414,IVAR LYKKES VEG 3,63.3580678289847,10.3748324689957,BURGER KING,Tillertorget,4.5280000000000005
998035295-979540094-54657,2016,BURGER KING STAVANGER,1.1.1.0,Hamburger restaurants,11030509,TORGET 7,58.97024923704471,5.73172760138605,BURGER KING,Arkaden Torgterrassen,12.02
916757433-916772262-822439,2016,BURGER KING NARVIK,1.1.1.0,Hamburger restaurants,18050706,BOLAGSGATA 1,68.4380251845451,17.4229163481462,BURGER KING,Amfi Narvik,7.622000000000001
913158733-913203305-675470,2016,GRENSEN BURGERBAR,1.1.1.0,Hamburger restaurants,1010301,OLAV VS GATE 1,59.1191746379136,11.3895724052761,,,3.64
982174139-982239737-14482,2016,MCDONALD'S ÅSANE SENTER,1.1.1.0,Hamburger restaurants,12010915,ÅSANE SENTER 37,60.4651181545656,5.3241008442042,MCDONALDS,Åsane Storsenter,30.514
916217153-911834553-435311,2016,BERGBYS NOTODDEN,1.1.1.0,Hamburger restaurants,8070301,NESØYA,59.559078756152,9.24938017107116,BERGBYS,,6.339
911917696-911923149-620844,2016,DUDEBURGER.NO,1.1.1.0,Hamburger restaurants,5010512,GUDBRANDSDALSVEGEN 191,61.1289255639466,10.4522475337707,,,5.02
917580618-917676909-855902,2016,BURGER KING TRIADEN LØRENSKOG STORSENTER,1.1.1.0,Hamburger restaurants,2300312,ISAK H. WIIKS GATE 3,59.9191467372363,10.952195039612,BURGER KING,Triaden Lørenskog Storsenter,1.873
999257828-999539467-544070,2016,HEMSEDAL BURGER,1.1.1.0,Hamburger restaurants,6180101,HEMSEDALSVEGEN,60.862796074739,8.55637552209631,,,3.445
983824072-983830064-55039,2016,MCDONALD'S NIDARVOLL,1.1.1.0,Hamburger restaurants,16014202,BAARD IVERSENS VEG 2,63.4011026216634,10.403469785753,MCDONALDS,,22.229
915953964-916000669-789430,2016,BURGER KING CITY NORD,1.1.1.0,Hamburger restaurants,18040312,STORMYRVEIEN,67.2776495819776,14.4226540432695,BURGER KING,City Nord,12.524
918023925-918087567-872230,2016,BURGER KING AMFI KANEBOGEN,1.1.1.0,Hamburger restaurants,19030306,SKILLEVEIEN,68.77943861059249,16.566267033764,BURGER KING,Amfi Kanebogen,0.456
915123171-984245270-62920,2016,EURO HAMBURGER,1.1.1.0,Hamburger restaurants,3012402,HERSLEBS GATE 7 A,59.9186378028236,10.762710613448998,,,2.128
917992428-918048308-870613,2016,BURGER KING STORD,1.1.1.0,Hamburger restaurants,12210305,HAMNEGATA 11,59.7785066626021,5.499305865554089,BURGER KING,Amfi Stord,0.895
997818822-983493424-62501,2016,BURGER KING KRISTIANSUND,1.1.1.0,Hamburger restaurants,15050201,KONGENS PLASS 4,63.110582606796704,7.72956764872321,BURGER KING,,5.127000000000001
998709652-998719038-423291,2016,DØGNVILL BAR & BURGER,1.1.1.0,Hamburger restaurants,11030509,SKAGENKAIEN 5,58.9706295765863,5.73123559590246,VULKAN BURGERBAR,,28.881
916762259-916788622-823140,2016,BURGER KING FINNSNES,1.1.1.0,Hamburger restaurants,19310302,STORGATA 7,69.2292317987247,17.980280469949697,BURGER KING,Amfi Finnsnes,6.709
913646797-913718712-696097,2016,MUNCHIES GRUNERLØKKAMUNCHISE,1.1.1.0,Hamburger restaurants,3012305,THORVALD MEYERS GATE 47 A,59.9241550536053,10.758884654304198,,,2.536
999593194-999605419-502819,2016,BURGER BAR,1.1.1.0,Hamburger restaurants,3010205,STORGATA 21,59.91431796295079,10.7504888510547,,,14.137
911560089-911583380-488818,2016,ASIA VILLAGE,1.1.2.0,Sushi and wok restaurants,3010708,SKOVVEIEN 8,59.916457028764896,10.7162220033365,,,0.0
998053676-983450636-61983,2016,EAT SUSHI & MORE,1.1.2.0,Sushi and wok restaurants,3010201,AKERSGATA 67,59.9169019676537,10.743917006131802,,,5.353
898083802-996036316-167705,2016,FUJI SUSHI  SANDEFJORD,1.1.2.0,Sushi and wok restaurants,7060106,AAGAARDS PLASS 5,59.131557854007,10.219028887713302,FUJI SUSHI,,3.3710000000000004
993361747-893374582-5810,2016,WOK HERKULES,1.1.2.0,Sushi and wok restaurants,8060401,ULEFOSSVEGEN,59.19738525306721,9.605014405859391,,Herkules,8.352
994984322-994996819-122538,2016,FUJI SUSHI TØNSBERG,1.1.2.0,Sushi and wok restaurants,7040908,STORGATEN 20,59.2661583574265,10.4085994571267,FUJI SUSHI,,3.14
917216843-917270570-840544,2016,SON SUSHI AS,1.1.2.0,Sushi and wok restaurants,2110212,SAGAVEIEN 74,59.5247700462197,10.6882781493695,,,1.521
916607954-916641745-817029,2016,JAPO SUSHI SOGNSVANN,1.1.2.0,Sushi and wok restaurants,3014606,SOGNSVEIEN 70,59.94787757502561,10.7316771430316,JAPO SUSHI THANH KIEN QUACH,Amfi Ullevaal,0.0
999002390-999078788-534458,2016,WASABI TØYEN,1.1.2.0,Sushi and wok restaurants,3012603,HAGEGATA 28,59.9144205622801,10.775439047567302,,Tøyen Senter,9.916
918022732-897022532-164193,2016,GEILO SUSHI,1.1.2.0,Sushi and wok restaurants,6200207,GEILOVEGEN 25,60.5359163523596,8.21093023517815,,,0.3389999999999999
987558601-986674098-64419,2016,SUSHI EXPRESS,1.1.2.0,Sushi and wok restaurants,3010809,PARKVEIEN 6,59.9212064665228,10.7300994444935,,,4.755
997881281-997902076-151703,2016,SUSHI ADAMSTUEN,1.1.2.0,Sushi and wok restaurants,3011106,ULLEVÅLSVEIEN 95,59.9328265487156,10.7336574156238,,,0.289
911707640-911727250-483829,2016,YANAGI SUSHI,1.1.2.0,Sushi and wok restaurants,7040504,GAUTERØDVEIEN 3,59.27551930630529,10.4533491814363,,,0.7509999999999999
913920570-992727314-106120,2016,HAI SUSHI,1.1.2.0,Sushi and wok restaurants,3013605,JERNBANEVEIEN 1,59.9075751141485,10.8193043182369,,,6.252999999999999
998269733-972632635-76881,2016,NAM KANG SUSHI,1.1.2.0,Sushi and wok restaurants,3010204,FREDENSBORGVEIEN 22 E,59.9189268874827,10.747672527231,,,2.692
912259110-912313212-635638,2016,SUSHIME SØNDREGATE,1.1.2.0,Sushi and wok restaurants,16011204,SØNDRE GATE 22 B,63.4339681885225,10.3997763237596,,,2.89
915356656-915616380-774009,2016,SUSHI TOGO JESSHEIM,1.1.2.0,Sushi and wok restaurants,2350205,FURULUNDJORDET 12 B,60.1427585628755,11.1718306811636,,Jessheim Storsenter,0.0
998200008-913249992-677253,2016,NOODLE NOODLE,1.1.2.0,Sushi and wok restaurants,11030502,VERKSGATA 2,58.971772933895,5.73725708561401,,Magasin Blaa,3.02
982529026-982549515-62138,2016,NAMA SUSHI & NOODLES,1.1.2.0,Sushi and wok restaurants,12010117,LODIN LEPPS GATE 2 B,60.3966582319354,5.32551045343867,,,26.378
913269276-996274195-8925,2016,UMI SUSHI,1.1.2.0,Sushi and wok restaurants,3010901,NEUBERGGATA 9,59.9255074907193,10.7143635058107,,,2.006
913181077-913092546-669317,2016,SUSHI & WOK EXPRESS,1.1.2.0,Sushi and wok restaurants,2170103,KOLBOTNVEIEN 11,59.810948263646,10.8010878176149,,Kolbotn Torg,2.998
813388502-913525272-687452,2016,DIN SUSHI,1.1.2.0,Sushi and wok restaurants,7060301,SKIRINGSSALVEIEN 52,59.1310168310398,10.2055923361298,,,1.575
915245595-998996716-392674,2016,SUSHI HUSET CARL BERNER,1.1.2.0,Sushi and wok restaurants,3012109,TRONDHEIMSVEIEN 111 B,59.92556842557429,10.7762560797953,,,2.317
898391132-998398754-609917,2016,ALEX SUSHI TJUVHOLMEN,1.1.2.0,Sushi and wok restaurants,3010401,STRANDPROMENADEN 11,59.9079319930527,10.7232390774382,ALEX SUSHI,,16.162
912453758-887970602-26972,2016,BJØLSEN SUSHI,1.1.2.0,Sushi and wok restaurants,3011704,SARPSBORGGATA 12 C,59.9423406671018,10.7598963051384,,,1.0
915621414-915666981-775762,2016,ART SUSHIBAR,1.1.2.0,Sushi and wok restaurants,1050205,ST. MARIE GATE 99,59.28275631581389,11.113480852502802,,,0.256
915227740-915466516-768584,2016,HOA SUSHI,1.1.2.0,Sushi and wok restaurants,3011106,ULLEVÅLSVEIEN 95,59.9328265487156,10.7336574156238,,,8.372
813997932-914008328-707829,2016,WABISABI AS,1.1.2.0,Sushi and wok restaurants,3013007,KONGSVEIEN 91,59.8818916247577,10.7828770127436,,,7.555
917220727-917274789-840692,2016,SUSHISØSTRENE & THAIMAT AS,1.1.2.0,Sushi and wok restaurants,3010306,STORTINGSGATA 28,59.91448352570461,10.7325217894461,,,1.3969999999999998
997329481-997361881-156294,2016,RÅ SUSHI TROMSØ,1.1.2.0,Sushi and wok restaurants,19020103,SKIPPERGATA 16,69.6534370524767,18.9621773254941,,,27.764
913094948-913773616-697914,2016,FUJI SUSHI RORTUNET,1.1.2.0,Sushi and wok restaurants,6270103,KIRKEALLEEN 1,59.7782531200949,10.4858775036118,FUJI SUSHI,Rortunet Senter,3.386
999276032-985152012-278955,2016,DOMSTEIN FISH AS,1.1.2.0,Sushi and wok restaurants,14390306,SJØGATA,61.934788122902,5.11444844951547,,Måløy Brygge,70.0
814245632-914275857-718762,2016,DIN SUSHI LARVIK,1.1.2.0,Sushi and wok restaurants,7090806,YTTERSØVEIEN 2,59.0688111222424,10.0476465498719,,Nordbyen,2.963
996644863-996768899-152796,2016,SABI SUSHI PEDERSGATA,1.1.2.0,Sushi and wok restaurants,11030201,PEDERSGATA 38,58.9700012566564,5.74327249314054,SABI,,13.025
914379741-998344816-425212,2016,SUSHI & BAGUETT,1.1.2.0,Sushi and wok restaurants,3010201,ULLEVÅLSVEIEN 1,59.918071049665,10.7437994788323,,,1.446
996420205-996432432-152687,2016,PANDAS WOK & SUSHI BAR,1.1.2.0,Sushi and wok restaurants,7040908,MØLLEGATEN 3 A,59.2677235039398,10.4059022040584,,,7.234
998693136-998699169-479518,2016,MOSHI-MOSHI,1.1.2.0,Sushi and wok restaurants,2310202,STORGATA 29,59.9578428579204,11.0492025948021,,Lillestrøm Torv,3.639
815380622-890147402-19082,2016,SANS SUSHI & ASIATISK MAT,1.1.2.0,Sushi and wok restaurants,2200301,BILLINGSTADSLETTA 31,59.874827251838106,10.4917839681464,,,1.816
816652952-916694733-818965,2016,SIESTA CAFÉ & SUSHI,1.1.2.0,Sushi and wok restaurants,5420110,JERNBANEVEGEN 6 A,60.9857614596727,9.23371310808284,,,0.0579999999999999
913954874-999007635-352507,2016,UMAI SUSHI,1.1.2.0,Sushi and wok restaurants,3014303,LØRENVEIEN 43,59.93043401491071,10.7922298666996,,,4.422
996852733-996863948-154176,2016,WOK AND SUSHI,1.1.2.0,Sushi and wok restaurants,9040204,STORGATEN 13,58.3411637393969,8.593104430228651,,,2.214
998810205-915943306-787571,2016,HAPPY SUSHI,1.1.2.0,Sushi and wok restaurants,3010201,UNIVERSITETSGATA 2,59.9175932862121,10.7398569523485,,,2.635
911577933-972794694-31802,2016,NEVER MIND,1.1.2.0,Sushi and wok restaurants,3012003,VOGTS GATE 68,59.936793664513296,10.7663499759397,,,4.354
998633834-998660408-466115,2016,SEA SUSHI BAR,1.1.2.0,Sushi and wok restaurants,3010210,BRUGATA 3 A,59.9143422716745,10.754067421673,,,5.619
916158890-916392133-804054,2016,JONATHAN SUSHI & ASIAN DINING,1.1.2.0,Sushi and wok restaurants,3012306,KORSGATA 25,59.920049050102605,10.7581181876261,,,20.172
997275322-997286820-160302,2016,SABI SUSHI FORUS,1.1.2.0,Sushi and wok restaurants,11031736,LAGERVEIEN 2,58.8957702050068,5.70185594117925,SABI,Tvedt-senteret,12.948
913832698-996298604-155091,2016,ORI SUSHI BAR & WOK,1.1.2.0,Sushi and wok restaurants,8050811,STORGATA 155 A,59.141949718234905,9.65559785831385,,,2.794
999125026-999139256-472734,2016,KATANA SUSHI,1.1.2.0,Sushi and wok restaurants,6020509,GULDLISTEN 35,59.7425294095058,10.1579716324266,,Gulskogen Senter,4.395
995710013-995719665-134815,2016,JAPONIIS RØA SENTER,1.1.2.0,Sushi and wok restaurants,3015203,BØRJERLIA 46,59.9478974818744,10.6432958180344,,Røa Senter,13.442
915552749-915596843-773534,2016,SUSHI WAVE,1.1.2.0,Sushi and wok restaurants,11020806,FIGGENVEIEN 42 B,58.7862337124827,5.8144394336575305,,,1.251
915628052-997359240-157163,2016,SANDNES SUSHI,1.1.2.0,Sushi and wok restaurants,11020109,VÅGSGATA 33,58.851625971904895,5.73792717023048,,Amfi Vågen,3.2430000000000003
911991497-998344603-592173,2016,HOKKIGAI SUSHI,1.1.2.0,Sushi and wok restaurants,3011202,WALDEMAR THRANES GATE 2,59.9229467620697,10.7384556077612,,,2.5580000000000003
912114198-996243966-8998,2016,NORI SUSHI BAR,1.1.2.0,Sushi and wok restaurants,3013504,SANDSTUVEIEN 52,59.8869576715252,10.8026465139655,,,4.801
914042089-914118727-712768,2016,OSLO SUSHI,1.1.2.0,Sushi and wok restaurants,3010911,TRUDVANGVEIEN 25,59.9315807228168,10.7169891196395,,,2.032
998772184-898869032-565508,2016,ISUSHI,1.1.2.0,Sushi and wok restaurants,12010921,LITLEÅSVEGEN 2,60.468772598272494,5.32820214213214,ISUSHI,,38.704
913433599-916240465-798438,2016,PHAN HOLDNING,1.1.2.0,Sushi and wok restaurants,6260804,TIURSTUBBEN 2,59.8209264572227,10.3209234508955,,,6.465
913124170-996772497-166664,2016,STRØMMEN SUSHI & THAI MAT,1.1.2.0,Sushi and wok restaurants,2310803,STRØMSVEIEN 79 B,59.95051286975991,11.0113061589559,,Strømmen Storsenter,10.403
816629772-816673542-818250,2016,SUSHI SAQQA AS,1.1.2.0,Sushi and wok restaurants,3011211,WALDEMAR THRANES GATE 32,59.92497567228621,10.742605219063098,,,1.398
913323750-913375521-681924,2016,AKTIA SUSHI BAR,1.1.2.0,Sushi and wok restaurants,5340303,TORGVEGEN 6,60.4205278912703,10.5069273874066,,,0.921
897869152-989791893-89983,2016,WASABI TÅRNÅSEN,1.1.2.0,Sushi and wok restaurants,2170206,VALHALLAVEIEN 70,59.8188576467307,10.8148716687911,,Tårnåsen Senter,3.115
916673701-917078629-833250,2016,ISUSHI CAFE,1.1.2.0,Sushi and wok restaurants,12460407,SARTORVEGEN 12,60.3584954609108,5.12407530909044,ISUSHI,Sartor Storsenter,0.0
868922532-973026046-37983,2016,NODEE COLOSSEUM PARK,1.1.2.0,Sushi and wok restaurants,3012901,DRONNING EUFEMIAS GATE 28,59.907759865134295,10.7592475772206,,,49.57
917135495-917190119-837088,2016,SUSHIWOKEKSPRESSEN AS,1.1.2.0,Sushi and wok restaurants,3012101,TRONDHEIMSVEIEN 162 A,59.9301186404831,10.777841497381,,,0.959
991925007-987024860-74492,2016,SUSHI & WOK COLOSSEUM,1.1.2.0,Sushi and wok restaurants,3010908,ESSENDROPS GATE 9,59.9295476447728,10.7117124306552,,Colosseum Park,14.614
915465242-915489362-769504,2016,SAKURA LILLESTRØM,1.1.2.0,Sushi and wok restaurants,2310802,STRØMSVEIEN 21,59.9424653697153,11.0030130060577,,,4.377
912098362-912109291-626823,2016,ALEX SUSHI STAVANGER,1.1.2.0,Sushi and wok restaurants,11030807,HAAKON VIIS GATE 7,58.9694975850846,5.730860730954761,ALEX SUSHI,,7.06
996542017-996567184-8840,2016,BAR SUSHI TJUVHOLMEN,1.1.2.0,Sushi and wok restaurants,3010401,KANALEN 1,59.9081917120669,10.7212317398181,,,52.482
916993595-994485210-133777,2016,KIKKO SUSHI,1.1.2.0,Sushi and wok restaurants,6050102,STANGS GATE 5,60.1639345313986,10.2548275930909,,Kuben Hønefoss,2.271
898083292-898135322-538507,2016,FUJI SUSHI  DRAMMEN,1.1.2.0,Sushi and wok restaurants,6020604,BLICHS GATE 4,59.738199802618894,10.203061447482598,FUJI SUSHI,,7.103
916744765-916758723-821461,2016,SUSHI OF NORWAY KONNERUDGATA,1.1.2.0,Sushi and wok restaurants,6020602,KONNERUDGATA 34,59.7385630047985,10.1927738727675,,,1.051
913897196-891718462-46001,2016,BYGDØY SUSHI BAR,1.1.2.0,Sushi and wok restaurants,3010605,BYGDØY ALLÉ 66,59.91890634719751,10.7011790970505,,,5.955
917220506-912531775-644806,2016,SUSHI HOME,1.1.2.0,Sushi and wok restaurants,12011105,VESTLIVEGEN 2,60.4361765825421,5.4627722420785,,,0.6779999999999999
911692716-911861518-580941,2016,HOUSE OF SUSHI KIELLANDS PLASS,1.1.2.0,Sushi and wok restaurants,3011405,WALDEMAR THRANES GATE 72,59.9282211002307,10.7505055204878,HOUSE OF SUSHI KIELLANDS PLASS,Kiellands Hus,3.667
997650905-997692691-167045,2016,HOA-HONG SUSHI,1.1.2.0,Sushi and wok restaurants,9065104,HAVNEGATEN 8,58.4611790202538,8.76735830437721,,,2.823
997830334-993143197-133006,2016,HOUSE OF SUSHI MAJORSTUA,1.1.2.0,Sushi and wok restaurants,3010906,OLE VIGS GATE 15,59.927684642654,10.7216688967006,HOUSE OF SUSHI KIELLANDS PLASS,,5.224
912577465--64561-64561,2016,NAM NAM SUSHI,1.1.2.0,Sushi and wok restaurants,1065104,STORVEIEN 79,59.217235251763,10.9055793366361,,,0.0
913569164-913679377-694637,2016,LV SUSHI,1.1.2.0,Sushi and wok restaurants,10011702,BARSTØLVEIEN 50,58.1756712238108,8.130748888361339,,,3.034
915299253-977464137-43259,2016,OPPEGÅRD SUSHI & WOK,1.1.2.0,Sushi and wok restaurants,2170405,SKIVEIEN 211,59.76665504930239,10.811460570836198,,,9.755
916139195-998469740-540508,2016,WASABI SUSHI,1.1.2.0,Sushi and wok restaurants,6020303,ENGENE 4,59.74423036745689,10.2064808405231,,,3.814
997875915-997922670-151862,2016,SABRURA SUSHI,1.1.2.0,Sushi and wok restaurants,16011204,OLAV TRYGGVASONS GATE 28,63.43335358008229,10.3962484397987,,Byhaven,10.787
897172232-997185552-161241,2016,FAHLSTRØM SUSHI,1.1.2.0,Sushi and wok restaurants,5020403,FAHLSTRØMS PLASS 1,60.7959264763142,10.6904798324761,,CC Gjøvik,8.782
913870654-995870258-156557,2016,BRUMUNDDAL SUSHI,1.1.2.0,Sushi and wok restaurants,4120402,BRUGATA 1,60.8858022172787,10.9385956897889,,,8.024
915679307-915703038-777434,2016,JONATHAN SUSHI STABEKK TAKEAWAY,1.1.2.0,Sushi and wok restaurants,2190609,GAMLE RINGERIKSVEI 1,59.9086959067068,10.6017863081616,,,3.755
917698422-999550614-501618,2016,MITSUKAFE & SUSHI,1.1.2.0,Sushi and wok restaurants,3010208,MØLLERGATA 42,59.918025726863,10.7506125576318,,,0.501
913056736-911898683-472108,2016,OISHI AS,1.1.2.0,Sushi and wok restaurants,10010802,MARKENS GATE 35,58.14647334304539,7.99091664671981,,Sandens,5.136
915573665-915611273-773898,2016,WOK MARKET SARPSBORG,1.1.2.0,Sushi and wok restaurants,1050109,ROALD AMUNDSENS GATE 36,59.283325713052704,11.1075068813069,,Storbyen Kjøpesenter,1.948
998609968-998735165-318456,2016,WOK TOGO,1.1.2.0,Sushi and wok restaurants,2350205,STORGATA 7,60.1422948734124,11.1722895055792,,Jessheim Storsenter,4.596
913053710-993547662-108592,2016,MAKI SUSHI,1.1.2.0,Sushi and wok restaurants,2190910,GAMLE RINGERIKSVEI 34,59.91636669745901,10.5880469934624,,Bekkestua Senter,8.44
914142415-911878062-593114,2016,MY SUSHI,1.1.2.0,Sushi and wok restaurants,4120309,GAMMELGATA 27,60.8834760866466,10.9430207332436,,Parkgården,1.3159999999999998
915077242-915952119-787576,2016,MINTAGE SUSHI & ASIAN DINING AS,1.1.2.0,Sushi and wok restaurants,17020205,KVAMSVEGEN 161,64.0177671074196,11.490791760476998,,,3.149
898083322-998363284-434314,2016,FUJI SUSHI JESSHEIM,1.1.2.0,Sushi and wok restaurants,3014205,KLOSTERHEIMVEIEN 9,59.9146416457065,10.8201026104814,FUJI SUSHI,,7.26
915968570-995690292-119972,2016,NEVER FORGET SUSHI,1.1.2.0,Sushi and wok restaurants,3012703,STRØMSVEIEN 24,59.9089611964166,10.786921491333802,,,2.519
940519896-984044275-62083,2016,ALEX SUSHI SOLLI PLASS,1.1.2.0,Sushi and wok restaurants,3010504,CORT ADELERS GATE 2,59.9146547469144,10.7208152170701,ALEX SUSHI,,23.503
911600714-911644428-495399,2016,MALIN RESTAURANT & SUSHIBAR,1.1.2.0,Sushi and wok restaurants,12350606,UTTRÅGATA 12,60.6284080860612,6.42043518419425,,,5.016
913535898-913593073-690101,2016,STAVANGER SUSHI,1.1.2.0,Sushi and wok restaurants,11030510,JERNBANEVEIEN 3,58.9668915930588,5.73258526691466,,,4.018
914305063-999647464-509331,2016,SUSHI WORLD,1.1.2.0,Sushi and wok restaurants,3012001,SANDAKERVEIEN 10 E,59.9322327698386,10.7595039728429,,,0.174
913812603-995805952-156152,2016,SUSHI-NUMBER-ONE,1.1.2.0,Sushi and wok restaurants,3011305,DARRES GATE 14,59.927976350357895,10.754053570732902,,,2.664
987438312-877354822-17473,2016,SUSHI BAR,1.1.2.0,Sushi and wok restaurants,16012301,RANHEIMSVEGEN 175 B,63.4273290515785,10.522339417940302,,,4.324
914196647-914230829-716997,2016,THAI THAI TRONDHEIM,1.1.3.0,Thai restaurants,16011610,HAAKON VII'S GATE 9,63.443688558750495,10.4465180425167,,City Lade,7.592
914395445-994965646-147398,2016,MANEE THAI KAEWMANEE,1.1.3.0,Thai restaurants,11030502,NYTORGET 10,58.9703687417267,5.73824274451311,,,0.941
991108084-917027056-832134,2016,PHAD THAI,1.1.3.0,Thai restaurants,11032204,MADLAKROSSEN 14,58.95193760629189,5.67992851642717,,Amfi Madla,6.005
912196429-999197876-307250,2016,SAMRABTHAI PARADIS,1.1.3.0,Thai restaurants,12011310,SANDBREKKEVEGEN 1,60.336499828236,5.34668109921067,,,1.985
913697308-998705436-617543,2016,ROYAL THAI RESTAURANT,1.1.3.0,Thai restaurants,11020102,LANGGATA 87,58.8554845647234,5.739818788315509,,,3.523
915257380-991190171-86284,2016,PHAD THAI STADIONPARKEN,1.1.3.0,Thai restaurants,11031730,JÅTTÅVÅGVEIEN 7,58.914907481662205,5.72938554640082,,Stadionparken,3.975
985060746-985129576-58488,2016,ABC THAI,1.1.3.0,Thai restaurants,20020102,STRANDGATA 15,70.3728619132128,31.110496182718705,,,2.478
999512895-999558380-491766,2016,YAYAS DRAMMEN,1.1.3.0,Thai restaurants,6020303,ENGENE 6,59.7440653444664,10.2068484854772,CONSELTO,,4.016
915687180--782154-782154,2016,A-ROY THAI RESTAURANT & CAFE,1.1.3.0,Thai restaurants,3010203,PILESTREDET PARK 18,59.9200621095245,10.7392527094755,,,1.414
992945907-992950412-127708,2016,ALLEHJØRNET THAI,1.1.3.0,Thai restaurants,12010135,HERMAN FOSS' GATE 12,60.38769621360471,5.324505663727559,,,4.829
891098812-977360323-44219,2016,THAI THAI & CAFE,1.1.3.0,Thai restaurants,17020201,SJØFARTSGATA 2,64.01124267749739,11.4916217045294,,Amfi Steinkjer,6.154
987206969-987221763-65950,2016,EKSOTISK THAI AWAY,1.1.3.0,Thai restaurants,12010114,HÅKONSGATEN 18,60.3907373812221,5.319095398798559,,,1.223
915015697-975865983-30700,2016,MA MA THAI,1.1.3.0,Thai restaurants,12010128,KAIGATEN 20,60.39087639407761,5.33063073499375,,,2.022
995453371-995496895-124815,2016,RESTAURANT THAI MARKET,1.1.3.0,Thai restaurants,1061305,STORTORVET 5,59.2135524928061,10.936575403584198,,,7.547000000000001
994565559-994602446-128636,2016,SAWATDEE THAI RESTAURANT,1.1.3.0,Thai restaurants,7040906,ØVRE LANGGATE 65,59.2689040463524,10.4071862712646,,,4.404
914231337-972276294-19505,2016,NAREE THAI RESTAURANT,1.1.3.0,Thai restaurants,11030501,BREIGATA 22,58.9727099694357,5.73453679662809,,,4.453
915898963-915927068-786506,2016,MAE KANYAS THAI FOOD,1.1.3.0,Thai restaurants,15160106,BJØRNDALVEGEN 1,62.3426698397587,5.84845870313976,,Amfi Ulsteinvik,3.794
997365550-989698915-95885,2016,THAI HOUSE RESTAURANT,1.1.3.0,Thai restaurants,19020118,STORGATA 22,69.6467267160826,18.9522020556334,,,1.789
991218572-991245863-84113,2016,CHON THAI RESTAURANT,1.1.3.0,Thai restaurants,18040104,SJØGATA 21,67.2851409264332,14.3816983565561,,,5.644
999539130-999586686-619467,2016,TAJ MAHAL DRAMMEN AS,1.1.3.0,Thai restaurants,6020303,NEDRE STORGATE 23,59.742874502691095,10.2103640488725,,,4.482
898810402-998850584-334060,2016,ISHNOOR & DISHAAN AS,1.1.3.0,Thai restaurants,3013416,OBERST RODES VEI 46 A,59.8705412662529,10.8077417311234,,,5.284
915022936-989507583-75548,2016,SAMRABTHAI,1.1.3.0,Thai restaurants,12010117,ØVREGATEN 2,60.396436089269294,5.32787889763265,,,5.278
999530613-991719407-114790,2016,THAI KJØKKEN,1.1.3.0,Thai restaurants,16011207,DRONNINGENS GATE 23,63.4318186568548,10.3907220746817,,,6.197
992794453-992882956-126951,2016,KHAO THAI RESTAURANT,1.1.3.0,Thai restaurants,16011205,SØNDRE GATE 17,63.4329798797023,10.4004995488822,,,3.044
914352959-914499925-727455,2016,THAIMAT AS,1.1.3.0,Thai restaurants,1064201,K.G.MELDAHLS VEI 9,59.2092842746589,10.9324447757565,,,1.707
916208944-992542934-97811,2016,SOM TAM THAIA RESTAURANT,1.1.3.0,Thai restaurants,3012003,VOGTS GATE 64,59.93614663942429,10.7657070730529,,,2.937
917415927--106244-106244,2016,SAWASDEE THAI RESTAURANT,1.1.3.0,Thai restaurants,12010313,HAGERUPS VEI 32 X,60.360557606901,5.36096961134671,,,0.5870000000000001
885343082-985374791-58917,2016,YAYAS OSLO,1.1.3.0,Thai restaurants,3010301,MUNKEDAMSVEIEN 53 B,59.910976887476,10.7225384354825,CONSELTO,,9.233
913468686-998938341-493499,2016,KROA FAH THAI,1.1.3.0,Thai restaurants,2270203,KIRKEVEIEN 79,59.9225667048989,11.168131496645902,,,1.404
911661004-911686538-483033,2016,HAVELI TANDOORI AS,1.1.3.0,Thai restaurants,3014017,NEDRE KALBAKKVEI 2 C,59.9510894130682,10.8669925313713,,,6.216
991456228-971965029-32627,2016,MR HONG,1.1.4.0,Chinese restaurants,3010306,STORTINGSGATA 8,59.9131509284551,10.737549645155802,,,15.78
915318959-971945389-27026,2016,NYE BAMBOO GARDEN,1.1.4.0,Chinese restaurants,7040907,ØVRE LANGGATE 49,59.2676142699147,10.4093437880275,,Torvgården,2.622
913580486-911809680-458841,2016,CHINA CAFE MOLDE,1.1.4.0,Chinese restaurants,15020207,TORGET 1,62.736911445050296,7.15895820507384,,Moldetorget,1.4680000000000002
998269962-874480622-18980,2016,CHINARESTAURANT SORTLAND,1.1.4.0,Chinese restaurants,18700209,VESTERÅLSGATA 70,68.695591813833,15.4133751888212,,,2.75
912856526-812869922-657762,2016,LILLE SAIGON 1 AS,1.1.4.0,Chinese restaurants,3012312,SEILDUKSGATA 17,59.92544309049401,10.7594843179121,,,8.015
966346205-972103489-42885,2016,PEKING RESTAURANT FLEKKEFJORD,1.1.4.0,Chinese restaurants,10040204,STRANDGATEN 38,58.2946769814155,6.66029642526339,,,1.557
980090116-880113542-18807,2016,CHINA HOUSE SOGNDAL,1.1.4.0,Chinese restaurants,14200206,FJØREVEGEN 17,61.2304716622846,7.10483757503502,CHINA HOUSE,,14.623
912442942-913039637-667477,2016,ORIENTAL GARDEN AS,1.1.4.0,Chinese restaurants,2200907,SKYSSTASJON 9,59.8334558588439,10.4327382623655,,,2.701
913144066-976194039-61963,2016,CHINA WOK LIERTOPPEN,1.1.4.0,Chinese restaurants,6260802,ASLAK BOLTS GATE 48,59.81129272162371,10.3058456135406,,Liertoppen Kjøpesenter,3.777
998524261-972307491-45221,2016,ASIA RESTAURANT LUNDE,1.1.4.0,Chinese restaurants,8190110,STRENGENVEGEN 29,59.296604090426,9.09898622440988,,,2.676
999297307-999504353-501503,2016,NOODLES & SOUP,1.1.4.0,Chinese restaurants,3011203,COLLETTS GATE 16,59.926046901975496,10.7376516269111,,,1.6869999999999998
913883683-972182583-24929,2016,CHINA GARDEN SOLA,1.1.4.0,Chinese restaurants,11240502,SOLAKROSSEN 10,58.8855617324623,5.6476772530373,,Solagården,4.627
912435091-887063842-24414,2016,KINESISK HILLEVÅG TA MED HJEM,1.1.4.0,Chinese restaurants,11031903,NORDLIA 1 D,58.9413380018717,5.74533271204329,,,2.945
995666596-988566330-97805,2016,GOLDEN DRAGON,1.1.4.0,Chinese restaurants,3012501,GRØNLANDSLEIRET 61 B,59.9097580861424,10.7679858533104,,,1.06
912108937-888570772-22163,2016,CHINA HOUSE DAMPSAGA,1.1.4.0,Chinese restaurants,17020205,BOGAVEGEN 6,64.018648878766,11.4894673781108,CHINA HOUSE,Dampsaga Senter,0.0
912766853-979711182-67735,2016,LIS FORTUNA RESTAURANT & KAFE,1.1.4.0,Chinese restaurants,6160105,STASJONSVEGEN 3,60.5697158930888,9.099204788883393,,,1.47
860906392-972261637-17580,2016,CHINA GARDEN BODØ,1.1.4.0,Chinese restaurants,18040108,STORGATA 60,67.2851629151002,14.3897972247753,,,3.852
987800232-972149187-42910,2016,KINARESTAURANT,1.1.4.0,Chinese restaurants,19030402,RIKARD KAARBØS GATE 18,68.8000023057124,16.5415171598756,,Bysenteret Harstad,5.49
916373988-977213061-33897,2016,SHENG LI CHINA HOUSE,1.1.4.0,Chinese restaurants,12380305,KAIEN 30,60.37090498204579,6.14609013310867,,,0.8740000000000001
992215410-992282916-115757,2016,GUANGDONG HOUSE,1.1.4.0,Chinese restaurants,12010128,MARKEN 11,60.3917550941609,5.33087674604932,,,3.895
998551943-984156375-87509,2016,SHANGHAI WOK,1.1.4.0,Chinese restaurants,19020103,ELVEGATA 1,69.65499355718279,18.9632682200053,,,3.242
914110432-972190047-3384,2016,NAM-NAM OSLO CITY,1.1.4.0,Chinese restaurants,3010211,STENERSGATA 1,59.912606645282,10.751543970195,,Oslo City,6.526
853036102-872196102-22175,2016,CHINA RESTAURANT NARVIK,1.1.4.0,Chinese restaurants,18050503,DRONNINGENS GATE 56,68.4382657762047,17.430136250892,,,4.142
914121892-913614747-691691,2016,YAN SHI RESTAURANT AS,1.1.4.0,Chinese restaurants,5330106,LUNNERLINNA 24,60.30390363021871,10.5838445457034,,,1.045
913876431-984281153-87511,2016,RESTAURANT PEKING GARDEN,1.1.4.0,Chinese restaurants,5380104,STORGATA 52,60.8371170460541,10.0697394473275,,Bondlidtorget,2.292
996821951-980750019-5861,2016,DYNASTY CHINA RESTAURANT JESSHEIM,1.1.4.0,Chinese restaurants,2350205,STORGATA 12,60.1426983062055,11.1734328336764,,Jessheim Storsenter,6.039
992622865-976724968-65265,2016,PEKING CAFE & RESTAURANT,1.1.4.0,Chinese restaurants,7040903,GREV WEDELS GATE 3,59.2712654651296,10.4091413934833,,,6.292999999999999
913279948-913316789-679783,2016,SMAKEN AV KINA AS,1.1.4.0,Chinese restaurants,9190112,GULLKNAPPVEIEN 140,58.5042661911488,8.660116028090071,,,1.161
917351252-972957429-38294,2016,GOLDEN HOUSE YIP KAM WAH,1.1.4.0,Chinese restaurants,6200207,LIENVEGEN 39,60.5351448169911,8.21867610606839,,,2.237
972424072-911667606-612408,2016,MING RESTAURANT,1.1.4.0,Chinese restaurants,1040504,DRONNINGENS GATE 27,59.4354182284448,10.6597772398755,,,6.484
915186580-915336671-763304,2016,HONG KONG VENNESLA,1.1.4.0,Chinese restaurants,10140203,SENTRUMSVEGEN 55,58.2702702120827,7.971970985959119,,Torsby Senter,2.888
911887347-998671876-596330,2016,ZHEN JIANG RESTAURANT,1.1.4.0,Chinese restaurants,4120312,ØVREGATE 4,60.88415481500071,10.9414220119385,,Parkgården,2.525
991968539-973029126-15102,2016,CHINA PLASS HUSNES,1.1.4.0,Chinese restaurants,12240604,SANDVIKVEGEN 12,59.862096301564,5.75600252608955,,Husnes Storsenter,2.247
974280809-972356417-45250,2016,MING CHINA TÅRNÅSEN,1.1.4.0,Chinese restaurants,2170206,VALHALLAVEIEN 70,59.8188576467307,10.8148716687911,,Tårnåsen Senter,1.501
989629387-972092967-130998,2016,PEKING GARDEN CHINA,1.1.4.0,Chinese restaurants,11200203,JÆRVEGEN 563,58.7771126350825,5.63218236893481,,,6.507999999999999
988076880-988099325-85746,2016,CHINA KROA MOSJØEN,1.1.4.0,Chinese restaurants,18240304,SKJERVGATA 8,65.8393004842399,13.1889080678359,,,1.871
913777034-971691913-18993,2016,PEKING PALACE MOELV,1.1.4.0,Chinese restaurants,4121202,MØLLERGATA 12,60.9289697095171,10.7019795174168,,,2.932
913213351-913232534-676133,2016,CHINA RESTAURANT TRYSIL,1.1.4.0,Chinese restaurants,4280505,STORVEGEN 28,61.3128301412317,12.2670573480646,,,3.486
987038357-982393213-43368,2016,HJØRNA CHINARESTAURANT,1.1.4.0,Chinese restaurants,11490606,HOVEDGATEN 50,59.2836013143661,5.3079725187406,,,1.903
997067045-997073622-163275,2016,LI'S FAMILIE AS,1.1.4.0,Chinese restaurants,12010137,JERNBANEBAKKEN 7,60.390664755612704,5.33501335120606,,,2.65
916576048-973997785-24381,2016,NEW TASTE OF CHINA,1.1.4.0,Chinese restaurants,3010205,TORGGATA 18,59.9161074493554,10.7514792199233,,,8.761000000000001
994328689-990709939-86908,2016,CHINA HOUSE ODDA,1.1.4.0,Chinese restaurants,12280311,RØLDALSVEGEN 25,60.068369529014994,6.546979454135059,CHINA HOUSE,,0.787
958455097-972223336-38708,2016,CHINA PALACE NAMSOS,1.1.4.0,Chinese restaurants,17030404,CARL GULBRANSONS GATE 7,64.4651276805076,11.4966144932462,,,3.412
912266575-872205772-17132,2016,LIU BEIJING RESTAURANT,1.1.4.0,Chinese restaurants,16011204,FJORDGATA 35,63.4343331472334,10.3961356770125,,Byhaven,2.883
999176534-995958678-157044,2016,ULSTEIN PIZZA & GRILL,1.1.5.0,Pizza restaurants,15160105,KYRKJEGATA 14 B,62.3444932867401,5.844444477519501,,,3.0860000000000003
912589013-987030895-78666,2016,FREDRIKS PIZZA OG RESTAURANT,1.1.5.0,Pizza restaurants,1230108,STASJONSGATA 40,59.6196441049536,11.0796075477058,,,1.641
991814973-991880666-146397,2016,PIZZABAKEREN FARSUND,1.1.5.0,Pizza restaurants,10030106,TORVET 4,58.0950427223781,6.804487536920751,PIZZABAKEREN INVEST,,4.145
993581097-880601512-31873,2016,DOMINOS PIZZA,1.1.5.0,Pizza restaurants,3012305,SEILDUKSGATA 9,59.9253638590205,10.7580129023762,,,5.436
916779348-916816820-823966,2016,PIZZABAKEREN ÅLESUND,1.1.5.0,Pizza restaurants,15040701,LERSTADVEGEN 506 B,62.470429694402895,6.34613959958656,PIZZABAKEREN HOLDING,,4.072
980029697-980065316-54078,2016,HORTEN PIZZERIA CAMPINO,1.1.5.0,Pizza restaurants,7010705,STORGATA 46,59.4131454210379,10.4811612502249,,,1.555
988550205--95873-95873,2016,PEPPES PIZZA STORBYEN,1.1.5.0,Pizza restaurants,1050109,ROALD AMUNDSENS GATE 28,59.284204201396896,11.1081756653302,PEPPES PIZZA,Storbyen Kjøpesenter,6.922999999999999
912089894-912201813-629285,2016,SMAKSFABRIKKEN,1.1.5.0,Pizza restaurants,9010304,ØREN 37,58.760387577653,9.07588489726787,,Søndeledtunet Handelssenter,0.003
997098587-997134087-402845,2016,PIZZABAKEREN ARENDAL,1.1.5.0,Pizza restaurants,9065406,KYSTVEIEN 157,58.4700742905746,8.79591150407012,PIZZABAKEREN INVEST,,5.069
992758201-992766301-106390,2016,PIZZABAKEREN STANGELAND,1.1.5.0,Pizza restaurants,11020304,OALSGATA 32,58.85205719702721,5.726560430870969,PIZZABAKEREN INVEST,,7.135
995504928-982375215-55279,2016,DOLLY DIMPLE'S AMFI BORG,1.1.5.0,Pizza restaurants,1052201,KLOKKERGÅRDVEIEN 32,59.2754728639954,11.0864157551356,DOLLY DIMPLES NORGE,Amfi Borg,4.033
998317177--73749-73749,2016,FEVIK PIZZA,1.1.5.0,Pizza restaurants,9040109,FEVIKTOPPEN 11,58.3807129875546,8.676045176333739,,Fevik Senter,0.3939999999999999
916268572-816307082-801293,2016,PIZZABAKEREN FREKHAUG,1.1.5.0,Pizza restaurants,12560203,MOLDEKLEIVMARKA 21,60.5522398684793,5.20973192755843,PIZZABAKEREN INVEST,,1.856
916339577-916357524-803080,2016,METRO PIZZA & GRILL,1.1.5.0,Pizza restaurants,2300107,ØVRE GRØNLIVEIEN 1 A,59.9415631979042,10.9818697197965,,,0.18
917732779-917854084-863235,2016,PIZZABAKEREN HORTEN,1.1.5.0,Pizza restaurants,7010705,APOTEKERGATA 16,59.4159760971208,10.4841924458944,PIZZABAKEREN INVEST,Torggården Kjøpesenter,0.914
986445021-986458271-79067,2016,JONAS B GUNDERSEN LYNGDAL,1.1.5.0,Pizza restaurants,10320303,GRØNDOKKA,58.1387086585954,7.06961397576939,JONAS B GUNDERSEN NORGE,Sentrumsgården Lyngdal,11.645
913024257-986914943-83518,2016,ALLEGRO PIZZERIA,1.1.5.0,Pizza restaurants,19021404,TURISTVEGEN 19,69.6461033113648,18.9912116008961,,,4.609
914761212-993239801-101943,2016,LUCIANOS PIZZARIA AS,1.1.5.0,Pizza restaurants,12430307,STEGEN 2,60.1857951298217,5.46760918311267,,,6.33
915387195--765271-765271,2016,PIZZABOXEN BOGSTADVEIEN,1.1.5.0,Pizza restaurants,3010906,BOGSTADVEIEN 39,59.92710355842711,10.7204257399347,,Westside Senter,0.226
915449964-986281975-54096,2016,MYSEN PIZZA & KEBAB AS,1.1.5.0,Pizza restaurants,1250506,JERNBANEGATA 3,59.5550814099978,11.3245596437606,,,1.3019999999999998
916552769-916572441-814391,2016,PIZZABAKEREN TØNSBERG,1.1.5.0,Pizza restaurants,7040908,NEDRE LANGGATE 28 C,59.2662988777557,10.405570166301,PIZZABAKEREN INVEST,,3.513
915438377-815537092-771274,2016,STARSN PIZZA,1.1.5.0,Pizza restaurants,3014121,TOKERUDBERGET 16,59.94398140824229,10.8478050630556,,Veitvetsenteret,0.381
987138661-887158592-25412,2016,PALERMO RESTAURANT & PIZZERIA,1.1.5.0,Pizza restaurants,16015218,BØCKMANS VEG 110,63.3980901668323,10.3594611253198,,,9.871
992662034-992670487-104516,2016,PIZZABAKEREN LILLESAND,1.1.5.0,Pizza restaurants,9260218,BERGSTØ 22,58.252933323765895,8.38370790438854,PIZZABAKEREN INVEST,,5.059
991313311-991345728-116930,2016,PIZZABAKEREN VENNESLA,1.1.5.0,Pizza restaurants,10140402,VENNESLAVEGEN 240,58.2530957009537,7.96747569347759,PIZZABAKEREN INVEST,,7.102
995666499-995776073-376190,2016,PIZZABAKEREN LARVIK,1.1.5.0,Pizza restaurants,7090202,KONGEGATA 33,59.05462830978729,10.027269354801,PIZZABAKEREN INVEST,,4.105
914739772-914762650-740624,2016,PIZZABAKEREN KRISTIANSUND N,1.1.5.0,Pizza restaurants,15050602,TROLLSVINGEN 41,63.1214174538307,7.739662359712759,PIZZABAKEREN INVEST,,3.026
942806213-972001279-25398,2016,PIZZASTUA,1.1.5.0,Pizza restaurants,2200904,ALFHEIM 7,59.8338912698334,10.436432218978,,,5.083
988270954-991888624-119990,2016,PIZZERIA SEVAL,1.1.5.0,Pizza restaurants,8050811,STORGATA 114,59.1389830229379,9.64977240875734,,,8.546
979216718-979325266-44903,2016,PEPPES PIZZA BODØ,1.1.5.0,Pizza restaurants,18040102,PROFESSOR SCHYTTES GATE 1,67.2839088483712,14.3778685482995,PEPPES PIZZA,Sentrumsgården Bodø,16.624000000000002
991842489-991869301-133179,2016,PIZZABAKEREN TANANGER,1.1.5.0,Pizza restaurants,11240103,TORKELSTIEN 3,58.9363041975348,5.58573835304312,PIZZABAKEREN INVEST,Tananger Senter,5.348
998594723-996395979-155833,2016,PIZZABAKEREN SOGNDAL,1.1.5.0,Pizza restaurants,14200206,FJØREVEGEN 8 C,61.2306431063212,7.1036162705101,PIZZABAKEREN INVEST,,6.431
914822300-974303833-44405,2016,PIZZASTUA HØNEFOSS,1.1.5.0,Pizza restaurants,6050401,OSLOVEIEN 33,60.1544446207769,10.2565014555697,,,1.291
915600778-915652093-775386,2016,PIZZA PANCETTA MAJORSTUEN,1.1.5.0,Pizza restaurants,3010907,KIRKEVEIEN 69,59.93028947362311,10.719585047584198,,,5.337000000000001
914902037-911807025-475192,2016,ORKDAL GRILL & PIZZA AS,1.1.5.0,Pizza restaurants,16380106,ORKDALSVEIEN 100,63.2983574524384,9.84785081707124,,,3.727
916690282-916823665-824446,2016,ITALIANO PIZZARIA,1.1.5.0,Pizza restaurants,2310804,STRØMSVEIEN 54,59.9458814066059,11.0081428385412,,Strømmen Storsenter,0.222
990611106-990664412-76336,2016,PIZZABAKEREN ÅLESUND,1.1.5.0,Pizza restaurants,15040804,BLINDHEIMSHAUGEN 9,62.4413849336441,6.37206583505426,PIZZABAKEREN INVEST,Blindheimsenteret,7.371
914788269-985419426-62524,2016,LILLEHAMMER PIZZERIA RISTORANTE,1.1.5.0,Pizza restaurants,5010603,STORGATA 61,61.1153127679162,10.466414847013,,,6.632000000000001
988047570-989886614-101067,2016,BALKAN PIZZA & KEBAB HOUSE,1.1.5.0,Pizza restaurants,1240202,HAUGOMGATA 10,59.58164456258511,11.167835822599,,,5.067
976562909-976564618-80198,2016,PIZZABAKEREN TASTA,1.1.5.0,Pizza restaurants,11032709,RANDABERGVEIEN 100,58.9811121236916,5.690951543546141,PIZZABAKEREN INVEST,,8.154
986679979-986710426-87545,2016,PIZZABAKEREN KVADRAT,1.1.5.0,Pizza restaurants,11020202,GAMLE STOKKAVEI 1,58.876265342403606,5.72177237643006,PIZZABAKEREN INVEST,Kvadrat,3.54
987123281-987146206-64051,2016,PIZZABAKEREN SOLA,1.1.5.0,Pizza restaurants,11240502,SOLAKROSSVEGEN 10,58.8835715277676,5.64925902275217,PIZZABAKEREN INVEST,,9.699
962097278-873786442-54841,2016,PEPPES PIZZA TØNSBERG,1.1.5.0,Pizza restaurants,7040908,NEDRE LANGGATE 26 B,59.266365738943605,10.4060289926965,PEPPES PIZZA,Foyn Tønsberg,22.036
932212366-971984430-30333,2016,LIZZIS PIZZA DRAMMEN,1.1.5.0,Pizza restaurants,6020302,ØVRE TORGGATE 4,59.7444645705435,10.2034645246532,,,16.814
911714779-911741199-483849,2016,PIZZABAKEREN TÅSEN,1.1.5.0,Pizza restaurants,3014510,TÅSENVEIEN 26,59.943939594595896,10.7477180562846,PIZZABAKEREN INVEST,,4.046
812491512-912507793-643590,2016,PIZZABAKEREN BREKSTAD,1.1.5.0,Pizza restaurants,16210202,YRJARS GATE 29,63.6917168567348,9.66169977108116,PIZZABAKEREN INVEST,Libra Shopping,4.432
814556352-814571882-730387,2016,PIZZABAKEREN RASCHS VEI,1.1.5.0,Pizza restaurants,3013505,RASCHS VEI 40,59.879862236603095,10.8052639081257,PIZZABAKEREN INVEST,,4.981
911620979-990125481-96617,2016,PEPPES PIZZA ELVERUM,1.1.5.0,Pizza restaurants,4270301,LUNDGAARDVEGEN 11,60.884850403565295,11.5628692109101,PEPPES PIZZA,Amfi Elverum,5.903
996323986-996840700-164943,2016,PIZZABAKEREN HASSINGEN,1.1.5.0,Pizza restaurants,1061806,FRESKOVEIEN 16,59.2169938737189,10.944339248461,PIZZABAKEREN INVEST,,4.682
812423002-912469913-642005,2016,STALLEN PIZZAPUB,1.1.5.0,Pizza restaurants,1280112,RÅDHUSVEIEN 2,59.42749747955789,11.3419324440961,,,2.917
988880116-988922064-120735,2016,PIZZABAKEREN SUNDE,1.1.5.0,Pizza restaurants,11032509,REVHEIMSVEIEN 234,58.960769177548,5.62507827781672,PIZZABAKEREN INVEST,,6.349
912415643-912433188-640341,2016,PIZZABAKEREN SANDE,1.1.5.0,Pizza restaurants,7130205,FILA 14,59.5851289755215,10.2054356398096,PIZZABAKEREN INVEST,,3.846
989250051-972941352-556680,2016,JONAS B GUNDERESEN KRISTIANSAND,1.1.5.0,Pizza restaurants,11020112,STORGATA 41,58.8520077288682,5.73312132570781,JONAS B GUNDERSEN NORGE,,4.112
995331640-995410982-133403,2016,PIZZABAKEREN BØMLO,1.1.5.0,Pizza restaurants,12190507,STOREVARDEN 3,59.79338111038079,5.1740516060841,PIZZABAKEREN INVEST,,4.117
999045456-899610652-487010,2016,2STONE EXPRESS,1.1.5.0,Pizza restaurants,1250507,OPSAHLVEIEN 1,59.55319501048321,11.3384671827002,,,0.623
914785227-998704626-479532,2016,PIZZARIA ROMA FROGN,1.1.5.0,Pizza restaurants,2150102,STORGATA 23,59.6606682069454,10.6296024574167,,,0.123
912453057-912463109-641840,2016,SUNDRE PIZZA,1.1.5.0,Pizza restaurants,6190104,MYREN 30,60.63064569929181,8.56269162141609,,Ålingen Kjøpesenter,2.025
918002634-918061029-871025,2016,SANLEO PIZZA AS,1.1.5.0,Pizza restaurants,12011606,SØRÅSHØGDA 9,60.306259922414,5.32278100092082,,Kilden Senter,0.0
985601402-985740887-109147,2016,PEPPES PIZZA MOSENTERET NITTEDAL,1.1.5.0,Pizza restaurants,2330315,MATTIAS SKYTTERS VEI 51,60.0466041813581,10.8800160404541,PEPPES PIZZA,Mosenteret Nittedal,0.0
997813545-872999752-17134,2016,EXPRESS PIZZA VEST,1.1.5.0,Pizza restaurants,15040206,KIRKEGATA 10 A,62.4708647493656,6.148486544939059,,,3.145
815205472-972286850-36739,2016,LARVIK PIZZA,1.1.5.0,Pizza restaurants,7090202,OSKARS GATE 4,59.0543303192669,10.0256635440215,,,2.137
916341083-916361475-803225,2016,VIGRESTAD PIZZA,1.1.5.0,Pizza restaurants,11190405,LYNGBLOMEN 8,58.57041328284679,5.688977767669019,,,4.776
912547469-980208354-73778,2016,NANNESTAD PIZZA,1.1.5.0,Pizza restaurants,2380209,RÅDYRVEIEN 2,60.2038087074882,10.833258221612802,,,2.822
914055075-976937708-80358,2016,MJØSA PIZZERIA OG RESTAURANT,1.1.5.0,Pizza restaurants,4121104,STORGATA 183,60.91390331728871,10.7100232340165,,,4.769
980807398-980856410-45811,2016,JONAS B GUNDERSEN KONGSBERG,1.1.5.0,Pizza restaurants,6040601,NYMOENS TORG 10,59.6701993786706,9.6477391085433,JONAS B GUNDERSEN NORGE,,10.892
999644260-911553309-602245,2016,SMILE PIZZA ELGESETER,1.1.5.0,Pizza restaurants,16011305,ELGESETER GATE 18,63.419524586828096,10.3953311815868,,,3.0660000000000003
914436702-898149382-446379,2016,PIZZERIA LA PIETRA,1.1.5.0,Pizza restaurants,3012704,INGEBORGS GATE 4,59.9083586113194,10.787377328018,,,4.303999999999999
915941869-915979386-788655,2016,MAMMA PIZZA STORO,1.1.5.0,Pizza restaurants,3011802,VITAMINVEIEN 7,59.94684204933579,10.7753872255242,,Storo Storsenter,3.744
913876318-976310152-61965,2016,EXPRESS PIZZA,1.1.5.0,Pizza restaurants,4270401,ST. OLAVS GATE 10,60.88096690341,11.5653775710977,,,2.03
992640952-982419867-43667,2016,BALKAN PIZZA & KEBABHOUSE,1.1.5.0,Pizza restaurants,3010809,MAURITZ HANSENS GATE 5,59.921459133946506,10.7320625400436,,,8.376
984746520-972228184-25431,2016,PIZZANET,1.1.5.0,Pizza restaurants,8060102,OSCARS GATE 2 B,59.2046447359138,9.60424940973706,,,8.663
998929431-991789049-97903,2016,RAVNANGER PIZZERIA,1.1.5.0,Pizza restaurants,12470703,ROMLEDALEN 15,60.4527954705025,5.13090929872266,,,1.914
996427048-999626653-597420,2016,EXPRESS PIZZA ROYAL,1.1.5.0,Pizza restaurants,15040301,KEISER WILHELMS GATE 22,62.47125245205461,6.1578840839906,,,0.2689999999999999
997523180-897535262-165209,2016,HAMNA PIZZAHUS,1.1.5.0,Pizza restaurants,19020418,EKORNVEGEN 40,69.70380321108401,18.9807360595943,,,1.4880000000000002
992997192-993013153-147406,2016,PEPPES PIZZA ASKIM,1.1.5.0,Pizza restaurants,1240202,RÅDHUSGATA 6,59.58285786340161,11.1656290963107,PEPPES PIZZA,Askimtorget,9.705
911894491-911910926-605926,2016,"LAVIDA CAFE, PIZZA OG RESTAURANTPUB",1.1.5.0,Pizza restaurants,7200207,GRIMESTADVEIEN 2 A,59.22232179637071,10.301712705808,,Lilletorget Stokke,2.116
916613008-971636475-23410,2016,PIZZANINI FREDRIKSTAD,1.1.5.0,Pizza restaurants,1061305,STORGATA 13,59.2126052228267,10.935645700648802,PIZZANINI NORWAY,,16.857
983435769-983444296-62500,2016,PEPPES PIZZA AMFI GEILO,1.1.5.0,Pizza restaurants,6200207,KYRKJEVEGEN 2,60.5339597676206,8.20802561484306,PEPPES PIZZA,Amfi Geilo,12.476
984838107-984886772-86278,2016,PEPPES PIZZA HARSTAD,1.1.5.0,Pizza restaurants,19030402,FJORDGATA 2,68.7989599658473,16.5446668433199,PEPPES PIZZA,Bertheustorget,8.181000000000001
988072257-988098221-76309,2016,PIZZABAKEREN VÅGSBYGD,1.1.5.0,Pizza restaurants,10010401,SVANEDAMSVEIEN 2,58.1312760127808,7.96636706794417,PIZZABAKEREN INVEST,,9.129
911735768-985115761-61989,2016,MILANO FINNSNES AS,1.1.5.0,Pizza restaurants,19310302,SMØRHUSBAKKEN 1,69.23030740907639,17.981414457056,,Amfi Finnsnes,3.515
916867492-987935588-89682,2016,PEPPES PIZZA MOSS,1.1.5.0,Pizza restaurants,1040502,JELØGATA 2,59.43439725997501,10.6531681945565,PEPPES PIZZA,,7.06
997951220-998311969-592090,2016,TRIXIE KEBAB OG PIZZA,1.1.5.0,Pizza restaurants,18250105,NER-SVENNINGDALSVEGEN 2,65.5371005722803,13.3911321410117,,,5.424
915448690-915526349-770768,2016,PIZZABAKEREN FEVIK,1.1.5.0,Pizza restaurants,9040109,FEVIKTOPPEN 1,58.3800827236235,8.67541836621962,PIZZABAKEREN INVEST,Fevik Senter,5.002
989346954-974368544-132590,2016,NAPOLI PIZZERIA GRILL,1.1.5.0,Pizza restaurants,15660202,SKEIVEGEN 9,62.9732781413466,8.72726273008737,,,5.853
998876419-998910935-468167,2016,PIZZABAKEREN MOLDE,1.1.5.0,Pizza restaurants,15020305,LINGEDALSVEGEN 9,62.7396568204132,7.17877815157934,PIZZABAKEREN INVEST,Amfi Roseby,7.46
891321422-891395132-43281,2016,PEPPE'S PIZZA STRØMMEN,1.1.5.0,Pizza restaurants,2310803,STØPERIVEIEN 2 A,59.9463819942315,11.0071167987584,PEPPES PIZZA,Strømmen Storsenter,8.798
915874967-875796682-26979,2016,MILANO PIZZA LARVIK,1.1.5.0,Pizza restaurants,7090203,PRINSEGATA 6,59.052338242164,10.0289478407569,,Amfi Larvik,1.446
917567263-917642060-854517,2016,PIZZABAKEREN KONGSVINGER,1.1.5.0,Pizza restaurants,4020207,GLOMMENGATA 63,60.1874903909286,12.0000923870063,PIZZABAKEREN INVEST,,1.093
992814454-981081277-55127,2016,MIAMI PIZZA,1.1.5.0,Pizza restaurants,6250404,DRAMMENSVEIEN 69,59.7505363582326,10.0231405372015,,,3.082
996715116-996723461-149716,2016,PIZZABAKEREN MJØNDALEN,1.1.5.0,Pizza restaurants,6250403,NEDRE TVERRGATE 5,59.749304467664,10.0102315547949,PIZZABAKEREN INVEST,,5.917999999999999
997153235-897208822-159619,2016,PEPPES PIZZA VOSS,1.1.5.0,Pizza restaurants,12350606,VANGSGATA 46,60.6291529231777,6.422259021618969,PEPPES PIZZA,,9.823
985516073-985534055-58814,2016,PIZZAKROKEN,1.1.5.0,Pizza restaurants,11420205,MOSTERØYVEIEN 661,59.0980011663589,5.608708329314929,,,2.867
992511613-992516992-86915,2016,PEPPES PIZZA HUSNES,1.1.5.0,Pizza restaurants,12240604,SANDVIKVEGEN 12,59.862096301564,5.75600252608955,PEPPES PIZZA,Husnes Storsenter,5.43
959103356-972239364-19002,2016,PIZZA INN,1.1.5.0,Pizza restaurants,10040204,ELVEGATEN 22,58.2955529411572,6.662013316659699,,,6.644
991419047-991427147-145785,2016,PIZZABAKEREN KLOKKERSUNDET,1.1.5.0,Pizza restaurants,15040501,NEDRE KLOKKERSUNDVEGEN 2,62.46660758179829,6.24604438985878,PIZZABAKEREN INVEST,,7.912999999999999
994940090-994959212-137035,2016,PIZZABAKEREN GIÆVERBUKTA K1 STORHANDEL,1.1.5.0,Pizza restaurants,19020204,KARLSØYVEGEN 1,69.6731631258088,18.9219384079638,PIZZABAKEREN INVEST,K1 Storhandel,7.425
912247155-912292037-633129,2016,PIZZABAKEREN LILLEHAMMER,1.1.5.0,Pizza restaurants,5010605,JERNBANEGATA 4 B,61.1147058480595,10.4629733479629,PIZZABAKEREN INVEST,,5.187
914735033-987355093-79073,2016,FLORVÅG PIZZA AS,1.1.5.0,Pizza restaurants,12470301,FLORVÅGVEGEN,60.4317723866213,5.238855829516671,,,3.224
991819134-998895693-328573,2016,SAN MARINO PIZZA RAUFOSS,1.1.5.0,Pizza restaurants,5290106,STORGATA 32,60.7257135334097,10.6136486590734,,Amfi Raufoss,2.115
915891225-915912230-786039,2016,PIZZABAKEREN KURLAND,1.1.5.0,Pizza restaurants,2300606,TØMMERVEIEN 43,59.9317001781536,11.028582687604402,PIZZABAKEREN INVEST,,3.849
986095128-986111557-54092,2016,PEPPES PIZZA HØNEFOSS,1.1.5.0,Pizza restaurants,6050104,NORDRE TORV 1,60.1703518499846,10.2589833299545,PEPPES PIZZA,,9.062
814056732-992341025-119951,2016,MONA LISA PIZZERIA DROTNINGSVIK,1.1.5.0,Pizza restaurants,12011917,DROTNINGSVIKVEIEN 132,60.37205298208071,5.18027206748451,,Drotningsvik Senter,1.789
980001466-973525271-30331,2016,MØLLEN RESTAURANT OG PIZZERIA,1.1.5.0,Pizza restaurants,16340104,DOVREVEGEN,62.6088600737354,9.48864263803588,,,8.832
996047555-982466709-55280,2016,PARADISE PIZZA,1.1.5.0,Pizza restaurants,3015401,ULLERN ALLÉ 4,59.926046783279,10.6416414775953,,,3.529
914119227-997910982-151702,2016,MILANO RØRVIK,1.1.5.0,Pizza restaurants,17500103,STRANDGATA 26,64.86283598479869,11.2418158397729,,,3.792
917582793-917659087-854840,2016,PIZZABAKEREN ULSTEINVIK,1.1.5.0,Pizza restaurants,15160106,SJØGATA 45,62.3430884321523,5.84710823349776,PIZZABAKEREN INVEST,Blåhuset,1.884
911760819-911938340-620397,2016,ORION PIZZAGRILL,1.1.5.0,Pizza restaurants,17020205,KONGENS GATE 15,64.0177745850832,11.4950493261914,,,11.765
916476205-816502802-812037,2016,PIZZABAKEREN BODØ,1.1.5.0,Pizza restaurants,18040102,DRONNINGENS GATE 9 A,67.283321466177,14.3797727194382,PIZZABAKEREN INVEST,Glasshuspassasjen,4.155
914245788-914281172-718763,2016,PEPPES PIZZA MO I RANA,1.1.5.0,Pizza restaurants,18330207,FRIDTJOF NANSENS GATE,66.3110326017395,14.135639160572,PEPPES PIZZA,Amfi Mo i Rana,6.316
992266236-981920716-46288,2016,PEPPES PIZZA DRØBAK,1.1.5.0,Pizza restaurants,2150102,TORGET 1,59.6631482600214,10.6297990116888,PEPPES PIZZA,,11.390999999999998
967548243-972312320-33075,2016,PIZZA DE MIMMO,1.1.5.0,Pizza restaurants,3010709,BEHRENS' GATE 2,59.9164410225409,10.7166253917311,,,6.477
985821054-983046045-46586,2016,ROSSI PIZZERIA,1.1.5.0,Pizza restaurants,12350606,STRANDAVEGEN 12,60.6301717218448,6.42618253400563,,,6.519
897833972-997843231-168761,2016,PIZZABAKEREN KONNERUD,1.1.5.0,Pizza restaurants,6021026,PETTERSVOLLEN 2,59.7174488840061,10.1485354336047,PIZZABAKEREN INVEST,Konnerud Senter,4.062
915921388-997257219-162872,2016,PIZZABAKEREN HOKKSUND,1.1.5.0,Pizza restaurants,6240404,HELLEFOSSVEIEN 2,59.773110644055606,9.90852587836446,PIZZABAKEREN INVEST,,3.096
986931198-987016523-5878,2016,PEPPES PIZZA JESSHEIM,1.1.5.0,Pizza restaurants,2350205,STORGATA 18,60.1420488048077,11.174146500009698,PEPPES PIZZA,Jessheim Storsenter,13.287
916945531-916964463-829266,2016,PIZZABAKEREN FYLLINGSDALEN,1.1.5.0,Pizza restaurants,12011815,DAG HAMMARSKJÖLDS VEI 109,60.3508912006861,5.29995627638808,PIZZABAKEREN INVEST,,1.288
981564529-981986725-64484,2016,PEPPES PIZZA NARVIK STORSENTER,1.1.5.0,Pizza restaurants,18050501,KONGENS GATE 66,68.4412602539044,17.4352891814509,PEPPES PIZZA,Narvik Storsenter,8.399
996441687-996929930-166709,2016,PEPPES PIZZA LOFOTSENTERET LEKNES,1.1.5.0,Pizza restaurants,18600306,STORGATA 8,68.14879370632461,13.6171093084119,PEPPES PIZZA,Lofotsenteret,8.791
889518502-982765641-71205,2016,GLOMMA PIZZA OG PUB,1.1.5.0,Pizza restaurants,1066102,APOTEKERVEIEN 20,59.2300617510993,10.9900320227542,,,2.303
912484513-990426716-85492,2016,MAJD PIZZA,1.1.5.0,Pizza restaurants,3013103,LJABRUVEIEN,59.849556927330205,10.803389943745598,,,2.665
915957404-915975879-788400,2016,MAMAS PIZZA EGERSUND,1.1.5.0,Pizza restaurants,11010403,NYTORGET,58.45165027118689,6.00301759907279,,Amfi Eikunda,6.7010000000000005
988915564-988983497-101408,2016,PIZZABAKEREN MYRENE ARENDAL,1.1.5.0,Pizza restaurants,9065213,KLOPPENEBAKKEN 12,58.4631577350432,8.74975987305756,PIZZABAKEREN INVEST,,10.078
816689732-916734476-820784,2016,PIZZA TIME,1.1.5.0,Pizza restaurants,12010809,NAUSTVEGEN 28,60.4885891056596,5.26088837177527,,,0.437
917326541-915335721-763303,2016,BERGEN PIZZA,1.1.5.0,Pizza restaurants,12010116,KONG OSCARS GATE 3,60.3952985010581,5.3273713807601295,,,1.336
998398770-893898042-30072,2016,HALLO PIZZASERVICE,1.1.5.0,Pizza restaurants,2270103,GARDERBAKKEN 6,59.928329681589496,11.163202437328698,,Rosenberggården,1.567
979438591-979469632-44783,2016,SARPSBORG COMPINO PIZZERIA,1.1.5.0,Pizza restaurants,1050205,PELLYGATA 66,59.28340225634111,11.114446536143598,,,6.047999999999999
989339818-980504093-73902,2016,OSKA PIZZERIA,1.1.5.0,Pizza restaurants,16011403,BAKKEGATA 2,63.431824352732704,10.4084801670824,,,2.537
898628752-998656958-466108,2016,PIZZABAKEREN DRONNINGENS GATE,1.1.5.0,Pizza restaurants,10011109,MAGNUS BARFOTS VEI 3,58.1775676344949,8.04062038459588,PIZZABAKEREN INVEST,,4.052
915596746-915650163-775135,2016,MOAN PIZZERIA,1.1.5.0,Pizza restaurants,17190701,MOAFJÆRA 14,63.73221094104471,11.282234421157,,Magneten,1.5659999999999998
911688808-990268061-75552,2016,GÅGATA PIZZERIA,1.1.5.0,Pizza restaurants,15050201,NEDRE ENGGATE 11,63.111256502952,7.729680699511941,,,2.62
913388801-985540551-61897,2016,MILANO KLÆBU PIZZARESTAURANT,1.1.5.0,Pizza restaurants,16620104,VIKINGVEGEN,63.299911602992495,10.4807967457629,,,3.833
860385422-872253262-22142,2016,STALLEN PIZZA,1.1.5.0,Pizza restaurants,11210104,STORGATA 7,58.7354272050082,5.648438144188731,,M44,0.0
883604172-983645631-55292,2016,BALKAN PIZZA & KEBABHOUSE,1.1.5.0,Pizza restaurants,2130504,TORGVEIEN 2,59.71906352438671,10.836904226547198,,Ski Storsenter,19.968
977286549-977290481-44215,2016,RIO PIZZA PORSGRUNN,1.1.5.0,Pizza restaurants,8050811,STORGATA 115,59.1384073754224,9.649335171719962,,,2.129
914600243-881222132-18511,2016,FLORA PIZZA,1.1.5.0,Pizza restaurants,1061302,NYGAARDSGATA 4,59.2085313256423,10.941983741204698,,,1.975
996368238-996376508-155760,2016,PIZZABAKEREN JESSHEIM,1.1.5.0,Pizza restaurants,2350204,ERLING GRØNLANDS VEG 2 A,60.1399835976659,11.172461264393,PIZZABAKEREN INVEST,,4.803
997979435-989452142-95546,2016,CAMPINO PIZZA HOUSE,1.1.5.0,Pizza restaurants,1010301,KIRKEGATA 26,59.120596268448,11.3860368516479,,,8.448
989023381-989344528-97898,2016,PIZZABAKEREN RANDABERG,1.1.5.0,Pizza restaurants,11270302,JON TORBERGSSONS VEI 10,58.9990810317406,5.6173541474635895,PIZZABAKEREN INVEST,,6.646
913225600-897840022-580307,2016,HAPPY TIME BRYNE,1.1.5.0,Pizza restaurants,11210104,STORGATA 20,58.7351774385596,5.646093926794459,,,10.224
996335879-984861133-88133,2016,PEPPES PIZZA ÅLESUND,1.1.5.0,Pizza restaurants,15040704,LANGELANDSVEGEN 51,62.4660484928629,6.35637527320232,PEPPES PIZZA,Amfi Moa,5.863
997716027-997750535-345682,2016,VENEZIA RESTAURANTE OG PIZZERIA,1.1.5.0,Pizza restaurants,5280206,RÅDHUSALLEEN 1,60.676790742486,10.813932618666898,,,4.659
915593445-985782806-102388,2016,EIK PIZZA & RESTAURANT,1.1.5.0,Pizza restaurants,7040306,EIKVEIEN 58,59.2933880422911,10.4195746386981,,,4.665
899271262-999651380-496621,2016,PIZZA COLOSSEUM,1.1.5.0,Pizza restaurants,3010909,SØRKEDALSVEIEN 3 A,59.93023104046311,10.7130326020298,,,0.0
986487131-986503455-96363,2016,PIZZABAKEREN MADLA,1.1.5.0,Pizza restaurants,11030604,MADLAVEIEN 80 A,58.9612316037748,5.7152866231831805,PIZZABAKEREN INVEST,,7.942
960127382-872242112-18615,2016,MR. PIZZA,1.1.5.0,Pizza restaurants,3011101,THERESES GATE 51,59.926032865172,10.7305277577295,,,0.789
899647122-999289487-439336,2016,EAT PIZZA,1.1.5.0,Pizza restaurants,12010130,OLAV KYRRES GATE 28,60.3899325709962,5.322818558966611,,,2.877
997869516-997885023-149821,2016,PIZZABAKEREN ÅSSIDEN,1.1.5.0,Pizza restaurants,6020125,VÅRVEIEN 20,59.7534252715277,10.1464241120683,PIZZABAKEREN INVEST,,4.239
912175049-984918402-86883,2016,PIZZA EKSPRESSEN,1.1.5.0,Pizza restaurants,2201505,HEGGEDALSBAKKEN 6,59.78665271055429,10.4363609777472,,,1.535
914876192--147931-147931,2016,DARIN PIZZA AS,1.1.5.0,Pizza restaurants,1061305,HOLLENDERGATA 2,59.2137472980648,10.9349570178296,,,1.396
917475210-917529221-850119,2016,PEPPES PIZZA SVOLVÆR,1.1.5.0,Pizza restaurants,18650403,TORGET 2,68.23213915463161,14.5635652505865,PEPPES PIZZA,,0.86
995481804-973138782-28731,2016,PIZZANINI HORTEN,1.1.5.0,Pizza restaurants,7010705,STORGATA 33,59.4150668762403,10.4812098461776,PIZZANINI NORWAY,,10.956
916518757-972320110-156870,2016,BABIS PIZZA,1.1.5.0,Pizza restaurants,2330302,STASJONSVEIEN 72,60.0585021047637,10.8665815786902,,,3.28
965450068-971615494-30075,2016,PEPPES PIZZA GAMLE FREDRIKSTAD,1.1.5.0,Pizza restaurants,1061105,TORVGATEN 57,59.20351677417789,10.951970953845198,PEPPES PIZZA,,6.839
999071457-972287806-30695,2016,SVINGEN PIZZERIA,1.1.5.0,Pizza restaurants,12470404,KLEPPEVEGEN 107,60.4225242580291,5.205344586107191,,,4.444
999550991-999583229-619457,2016,PIZZABAKEREN HUSNES,1.1.5.0,Pizza restaurants,12240604,SENTRUMSVEGEN 41,59.860163192005,5.75442292225317,PIZZABAKEREN INVEST,Husnes Storsenter,3.091
986029060-979893884-87542,2016,RA PIZZA,1.1.5.0,Pizza restaurants,7010402,RAVEIEN 311,59.356540697603904,10.4380950727013,,,3.735
997951336-997973593-463335,2016,PIZZABAKEREN ØSTSIDEN,1.1.5.0,Pizza restaurants,1066206,ROALD AMUNDSENS VEI 139,59.2408228609573,11.0158993519726,PIZZABAKEREN INVEST,,3.608
913052722-988069213-85744,2016,PEPPES PIZZA SANDEFJORD,1.1.5.0,Pizza restaurants,7060110,THOR DAHLS GATE 1,59.127579140072896,10.2287945750838,PEPPES PIZZA,,14.265
913290038-991764925-102487,2016,PIZZERIA LYSTHUSET,1.1.5.0,Pizza restaurants,1280113,STORGATA 20,59.425673376650295,11.3429522778642,,,2.585
980201996-980208796-87559,2016,DOLLY DIMPLE'S SOGNDALSSENTERET,1.1.5.0,Pizza restaurants,14200206,GRAVENSTEINSGATA 5,61.2297495791397,7.098807854730411,DOLLY DIMPLES NORGE,Amfi Sogningen,3.592
996993833-990848491-75560,2016,AFTEN PIZZA OG GRILL,1.1.5.0,Pizza restaurants,3010209,STORGATA 39,59.915124465112896,10.7546809471731,,,4.549
915288677-915379192-783681,2016,PEPPENOS PIZZA,1.1.5.0,Pizza restaurants,3014006,TRONDHEIMSVEIEN 391,59.9523594992988,10.8673685131861,,,1.29
916585012-916619146-816082,2016,INDRE ARNA PIZZA,1.1.5.0,Pizza restaurants,12011203,ARNATVEITVEGEN,60.39394183590179,5.4738441949499705,,,2.457
990692491-990730814-95372,2016,PIZZABAKEREN GRIMSTAD,1.1.5.0,Pizza restaurants,9040207,STORGATEN 95,58.34555277077349,8.581027530296861,PIZZABAKEREN INVEST,,8.047
915111750-915135854-755427,2016,PIZZABAKEREN FINNSNES,1.1.5.0,Pizza restaurants,19310302,STORGATA 4,69.22928656045421,17.9786692543531,PIZZABAKEREN INVEST,,8.613
990831831-990856540-85465,2016,BEN'S PIZZA,1.1.5.0,Pizza restaurants,15050401,KAASBØLS VEI 2,63.1187603710425,7.72221514763059,,,3.138
911903237-911932091-620779,2016,UNA PIZZERIA E BAR,1.1.5.0,Pizza restaurants,16011417,BEDDINGEN 14,63.4352522296604,10.4104124218711,,Solsiden Kjøpesenter,49.802
986487182-986505857-79935,2016,PIZZABAKEREN ÅLGÅRD,1.1.5.0,Pizza restaurants,11220103,SANDNESVEIEN 11,58.76719929021811,5.862205002110731,PIZZABAKEREN INVEST,,8.474
895785202-895790192-151740,2016,PIZZABAKEREN ALFHEIM,1.1.5.0,Pizza restaurants,19020126,ALFHEIMVEGEN 1,69.6499088231651,18.9409463855945,PIZZABAKEREN INVEST,,5.763999999999999
913663616-989490567-2326,2016,DOLLY DIMPLE'S TVEITA,1.1.5.0,Pizza restaurants,3013721,TVETENVEIEN 150,59.9138359576836,10.8418977752906,DOLLY DIMPLES NORGE,Tveita Senter,0.29
917081395-917116237-834521,2016,PIZZABAKEREN BEITOSTØLEN,1.1.5.0,Pizza restaurants,5440101,ØVREVEGEN 4,61.242992340557,8.920908804716971,PIZZABAKEREN INVEST,,1.795
971227346-975935221-23660,2016,PEPPES PIZZA BEITOSTØLEN,1.1.5.0,Pizza restaurants,5440101,BYGDINVEGEN 3781,61.2484298894777,8.90774145482122,PEPPES PIZZA,,14.378
912998118-999579930-619447,2016,VIVA NAPOLI PIZZERIA,1.1.5.0,Pizza restaurants,2160103,GAMLE HELLVIKVEI 5,59.8346206241004,10.6869281539411,,,4.671
976377966-976442466-53817,2016,JONAS B GUNDERSEN DRAMMEN,1.1.5.0,Pizza restaurants,6020303,BRAGERNES TORG 8,59.744257794268506,10.205449824845,JONAS B GUNDERSEN NORGE,,18.184
974532794-974788039-36684,2016,STOOGES AS,1.1.6.1,Eateries,3010503,SKOVVEIEN 3,59.915866777264206,10.7160306516006,,Frogner Atrium,13.534
998575931-998598087-457247,2016,TIDI AS,1.1.6.1,Eateries,12010131,HÅKONSGATEN 27,60.390195478257205,5.32030088432369,,,6.789
882856682--19504-19504,2016,SKAGEN BAGERI AS,1.1.6.1,Eateries,11030405,DALANEVEIEN 44,58.956297551969,5.750150145442199,,,2.263
913010337-999268587-339148,2016,STEINBUA AS,1.1.6.1,Eateries,4270401,LUNDGAARDVEGEN 16,60.88424357882749,11.5617147658562,,Amfi Elverum,7.182
913259831-981098471-54056,2016,WEN HUA HOUSE AS,1.1.6.1,Eateries,11210104,JERNBANEGATA 3,58.735758894617206,5.64875211640164,,M44,3.393
989124498-988112240-82885,2016,TORINO CENGIZ YAYAN,1.1.6.1,Eateries,16480102,STASJONSVEIEN 9 B,63.047167269285495,10.2829394616475,,Domus-senteret Støren,3.937
991996869-992067195-114759,2016,TIN LOI CHINESE TAKE AWAY,1.1.6.1,Eateries,12011924,BJØRNDALSSTØLEN 2,60.350955795907,5.24471919963822,,,7.153
912520374-974834235-30678,2016,TONYS MATGLEDE AS,1.1.6.1,Eateries,6050203,HØNENGATA 71,60.17756790198749,10.2688139919521,,,6.603
983250726-983350542-64563,2016,RESTAURANT HR REDAKTØR AS,1.1.6.1,Eateries,10020101,STORE ELVEGATE 25,58.0278766628716,7.45537066037245,,,20.806
997433696-997458052-161271,2016,SARAY RESTAURANT AS,1.1.6.1,Eateries,3012307,TRONDHEIMSVEIEN 10,59.9195447216745,10.7640021172385,,,7.995
998919126-998931126-474297,2016,TMG 56 AS,1.1.6.1,Eateries,3012311,THORVALD MEYERS GATE 56,59.922155721456,10.7594891239882,,,7.314
989467107-989491814-95547,2016,THE VIC AS,1.1.6.1,Eateries,12010128,KONG OSCARS GATE 29,60.3933305215177,5.33031777239544,,,3.428
997097246-997551923-163877,2016,SUDØST RESTAURANT AS,1.1.6.1,Eateries,3012502,TRONDHEIMSVEIEN 5,59.9181830856087,10.760713486310198,,,60.844
981528573-974155451-23605,2016,SMEDASUNDET SERVERING AS,1.1.6.1,Eateries,11060503,SMEDASUNDET 92,59.41296413112151,5.26725551677925,,,22.096
999178243-912059677-625149,2016,SUB GRØNLAND AS,1.1.6.1,Eateries,3013601,BEKKEVEIEN 21,59.904856103717,10.8197814658818,,,3.027
914160294-993167711-132511,2016,STRYN VERTSHUS,1.1.6.1,Eateries,14490108,TONNINGSGATA 19,61.904500996581,6.72394634499283,,,10.264
977159741-976035526-46046,2016,THE IRISHMAN AS,1.1.6.1,Eateries,4030406,STRANDGATA 31,60.7930531843979,11.0735563216278,,,8.846
993854034-993874310-112185,2016,RUFFINO AS,1.1.6.1,Eateries,3010303,ARBINS GATE 1,59.915014920115205,10.727205024283402,,,14.499
993855162-993948640-103659,2016,TILT AS,1.1.6.1,Eateries,3010205,TORGGATA 16 A,59.915849245677606,10.7508341192008,,,18.283
998416035-998434262-480971,2016,ZARDOS AS,1.1.6.1,Eateries,3010210,BRUGATA 11,59.913825212183895,10.7564724905686,,,9.623
912007073-912045803-624873,2016,TA DET PIANO AS,1.1.6.1,Eateries,15040301,KIPERVIKGATA 1 B,62.4717436958837,6.15884992259204,,Ålesund Storsenter,4.22
998327695-898366812-425190,2016,TANDOORIKJØKKEN AS,1.1.6.1,Eateries,16011204,SØNDRE GATE 22 A,63.43374801373261,10.399975752282,,,6.0920000000000005
811647802-994829491-128414,2016,YELLOW CHILLI AS,1.1.6.1,Eateries,6020602,GRIFFENFELDS GATE 3,59.739531256160205,10.1982844137246,,,2.277
966529830-972341738-43269,2016,UTSTEIN KLOSTER HOTELL AS,1.1.6.1,Eateries,11420205,MOSTERØYVEIEN 661,59.0980013561346,5.6087084526482,,,7.907999999999999
991256695-994160087-115749,2016,VEGA CAFE OG RESTAURANT,1.1.6.1,Eateries,3010204,AKERSGATA 74,59.9178197905552,10.7444660277034,,,0.0
998013380-994640070-125206,2016,ROSABELLA ØRSTA AS,1.1.6.1,Eateries,15040703,OLAV SUNDES VEG 2,62.4673802473384,6.35643834067891,,,3.486
896897462-996909735-166708,2016,VILLA MAT OG MER AS,1.1.6.1,Eateries,1250506,DAVID BLIDS GATE 6,59.5539919100202,11.3255109833596,,,3.465
998587514-985164460-54530,2016,SONJA BAR AS,1.1.6.1,Eateries,3010211,SONJA HENIES PLASS 2,59.9125991529836,10.7547980318843,,,3.4130000000000003
991371044-991377042-95656,2016,VOSS RESORT AS,1.1.6.1,Eateries,12350702,BAVALLSTUNET 26,60.6538897023755,6.41978760782683,,,5.6160000000000005
991949283-993310190-115693,2016,UTSIKTEN RESTAURANTDRIFT AS,1.1.6.1,Eateries,12010116,TORGET 2,60.3951778056516,5.325277913189559,,,81.609
999632823-976193008-55315,2016,SHNA AS,1.1.6.1,Eateries,19310302,SJØGATA 5,69.22838589101521,17.989218864757603,,,6.388999999999999
997749669-993624292-123880,2016,VETTAKOLLEN ST AS,1.1.6.1,Eateries,3014601,SKOGRYGGVEIEN 39,59.95973899677521,10.6960184228456,,,3.621
994339788-994398938-114481,2016,TINSON AS,1.1.6.1,Eateries,2190701,DRAMMENSVEIEN 305,59.9131741205663,10.6382337012082,,,9.645
996401464-996444724-158008,2016,ZUPPA TORGET AS,1.1.6.1,Eateries,12010116,TORGET 13,60.3951515319192,5.32628002984592,,,19.219
976470052-976474589-54663,2016,SÆTRE INVEST AS,1.1.6.1,Eateries,6280305,SÆTREALLEEN,59.681784101028605,10.5283288015218,,,5.289
981542053-981558820-61890,2016,TO-MAT OG KJØKKEN AS,1.1.6.1,Eateries,11030509,ØVRE HOLMEGATE 20,58.972786217468006,5.7321833385420895,,Breitorget Kjøpesenter,11.397
994287850-994305859-130988,2016,SURF & TURF RESTAURANT AS,1.1.6.1,Eateries,20300303,DR. WESSELS GATE 2,69.7275790576904,30.0393699922249,,Amfi Kirkenes,11.298
989166905--25378-25378,2016,STALLEN,1.1.6.1,Eateries,7090701,LAMØYA,59.029002580526296,10.1100119787902,,,0.259
990129142-991920277-14389,2016,VAAGEN PUB KLØVERHUSET,1.1.6.1,Eateries,12010115,STRANDKAIEN 12,60.3945457329631,5.322897127167,,Kløverhuset,6.528
996336263-997424093-157267,2016,SALONG AS,1.1.6.1,Eateries,3011902,IVAN BJØRNDALS GATE 9,59.9387468869147,10.7653621119793,,,2.946
913016769-971957379-22225,2016,SKULLERUDSTUA,1.1.6.1,Eateries,3015804,GENERAL RUGES VEI 106,59.86367449027679,10.8464079071303,,,4.288
913719425-981944534-54835,2016,SIMPLY GOOD FLESLAND,1.1.6.1,Eateries,12011616,FLYPLASSVEGEN 519,60.2937510349427,5.226185124967191,,,0.5
988335975-972002178-23613,2016,ØLEN GJESTEGÅRD AS,1.1.6.1,Eateries,11600602,DREGANESVEGEN 7,59.6047226420749,5.81228319481268,,,1.915
993386022-993393207-149084,2016,NORGES TEHUS,1.1.6.1,Eateries,3014508,TÅSENVEIEN 74 D,59.9545254268671,10.7533793205239,,,0.748
997151259-995506017-124816,2016,TAPAZ NORWEGIAN OUTLET,1.1.6.1,Eateries,2110120,VESTBYVEIEN 155,59.62391159086929,10.7409941691742,,Oslo Fashion Outlet,10.032
912423018-812445332-640840,2016,TRATTORIA PARMA AS,1.1.6.1,Eateries,20250201,RÅDHUSVEIEN 20,70.1992149668915,28.1874218315469,,,5.083
898456692-998491436-462887,2016,SKIFER KAFE AS,1.1.6.1,Eateries,5420110,SKRAUTVÅLSVEGEN 2,60.98576808967461,9.23528015941788,,,2.337
911953323-911998351-623198,2016,TAPAS BAR AS,1.1.6.1,Eateries,3010205,TORGGATA 18,59.9161074493554,10.7514792199233,,,0.0
988434558--114712-114712,2016,STEENHUSET KRO & CATERING,1.1.6.1,Eateries,9065101,NEDRE TYHOLMSVEI 10,58.4590418048465,8.76757807680082,,,0.306
971106727-974882183-24225,2016,ST CROIX AS,1.1.6.1,Eateries,3010103,GRENSEN 10,59.9135166415016,10.7431848898421,,Steen & Strøm Department Store,32.197
979433794-982592747-63037,2016,TRYSIL FJELLRESTAURANTER AS,1.1.6.1,Eateries,4280502,VELKOMSTVEGEN,61.3081930506061,12.237951107420098,,,8.746
996900576-996984494-162698,2016,SYNNFJELLPORTEN AS,1.1.6.1,Eateries,5380307,SYNNFJELLVEGEN,61.071289881982295,9.9393055870181,,,3.149
997973658-997980700-463354,2016,ØSTKANTGUTTA AS,1.1.6.1,Eateries,3011702,BERGENSGATA 2,59.939991667365895,10.758912538591002,,,1.075
997344502-987859237-79112,2016,SØTT OG SPRØTT AS,1.1.6.1,Eateries,3010306,STORTINGSGATA 28,59.91448352570461,10.7325217894461,,,6.321000000000001
885821022-985861307-109149,2016,VERKSTADEN BISTRO AS,1.1.6.1,Eateries,15280103,AURSNESVEGEN,62.3875147284258,6.542463338039269,,,4.881
913579844-913650719-693573,2016,ROTSABIENG AS,1.1.6.1,Eateries,15040206,KIRKEGATA 18,62.47082456412,6.1467509047048,,,0.944
970444459-972126152-19074,2016,STIFTELSEN FOLKEN,1.1.6.1,Eateries,11030601,LØKKEVEIEN 24,58.967474618074704,5.727918230390579,,,12.83
913038649-913091701-669316,2016,TORGET 7 SERVERING AS,1.1.6.1,Eateries,12010116,TORGET 11,60.3950315668552,5.326166249210701,,,20.59
917319324-973650335-23387,2016,TINNSJØ KRO & CAMPING AS,1.1.6.1,Eateries,8260207,NEDRE VEG 4,59.92517594003471,8.80085329554836,,,2.394
995653346--117520-117520,2016,TINGNES SPISERI AS,1.1.6.1,Eateries,4121003,TINGNESVEGEN 796,60.7626733379108,10.9412504227152,,,3.868
976800095-976927028-69969,2016,THE MINI BOTTLE GALLERY AS,1.1.6.1,Eateries,3010105,KIRKEGATA 10,59.9096259016624,10.7433207338108,,,5.522
995542854-995558963-146204,2016,SALATERIET AS,1.1.6.1,Eateries,3014404,NYDALSVEIEN 33,59.949564725002205,10.7657888491236,,,0.867
997723112-912353478-637653,2016,STØTT BRYGGE AS,1.1.6.1,Eateries,18370103,OSA,66.9256901513296,13.4355290683879,,,1.919
998097649-998143853-432093,2016,ØYKROA HVALER,1.1.6.1,Eateries,1110205,NORDERHAUGVEIEN 8,59.1107687796549,10.9118224483915,,,2.049
895189642-895241512-118945,2016,ROLL & ROCK SKOSTREDET AS,1.1.6.1,Eateries,12010116,SKOSTREDET 14,60.3944364782336,5.32837680055133,,,22.357
998629098-998657954-596283,2016,TAPAS TROMSØ AS,1.1.6.1,Eateries,19020105,STORTORGET 5,69.6516424575283,18.9588995442842,,Veita Shopping,6.96
994176269-994202162-132551,2016,UTLA KAFE OG BAR,1.1.6.1,Eateries,14240104,FARNESVEGEN 3,61.31002867871389,7.807095004333509,,,2.715
993948063-993964107-102400,2016,STORE HØVDING AS,1.1.6.1,Eateries,16011204,NORDRE GATE 23,63.4343203872878,10.3974380836503,,,15.998
814080242-984399243-71221,2016,VIVA NAPOLI HONNINGSVÅG AS,1.1.6.1,Eateries,20190107,STORGATA 8,70.9818458816334,25.9738849107237,,,1.783
886841612-986874208-76469,2016,SOGNAPORTEN INFORMASJONS OG SERVI,1.1.6.1,Eateries,14210104,HELABROTET 1,60.9075753940766,7.19529363839947,,,5.553999999999999
989901540-989934775-95966,2016,TANTE BETTYS AS,1.1.6.1,Eateries,20140105,STORGATA 9,70.2636390220915,22.1091776297372,,,0.153
990591512-972401331-71226,2016,STAR GATE AS,1.1.6.1,Eateries,3012502,GRØNLAND 2,59.9135187041686,10.758584849302098,,Grønlands Torg,12.594
997818393-997831411-294917,2016,TILSTEDE MAT OG MER AS,1.1.6.1,Eateries,10010802,MARKENS GATE 29,58.14600477684521,7.99186428281461,,Lillemarkens,7.792000000000001
913301226-913338928-680583,2016,WORLD STAR AS,1.1.6.1,Eateries,18710102,TORE HUNDSGATE 16,69.3207471086021,16.1280438411585,,,0.28
978601472-978604706-44886,2016,SJØSTJERNA AS,1.1.6.1,Eateries,15050202,SKOLEGATA 8,63.1120694440294,7.72920542343331,,Amfi Storkaia Brygge,5.442
984524560-984563329-65991,2016,TOFU AS,1.1.6.1,Eateries,12010130,REGNBUEPLASSEN 1,60.390891355201,5.32170244215118,,,5.06
911679124-811796662-483956,2016,TOGET AS,1.1.6.1,Eateries,6260205,HEGSBROVEIEN 46,59.7860770419932,10.2470401499735,,,0.59
914927234-974503859-131780,2016,SEILERHYTTA AS,1.1.6.1,Eateries,7090610,ØDEGÅRDSVEIEN 20,59.0242935401962,10.0933144810796,,,3.273
915454917-971940883-24919,2016,YUMMY HOUSE,1.1.6.1,Eateries,3010909,SØRKEDALSVEIEN 5 A,59.93061710491939,10.7123545699693,,,4.096
983079814-983192947-64447,2016,SPILLERIET,1.1.6.1,Eateries,1061401,BORGGATA 18,59.215699377780005,10.929934123086,,,2.6860000000000004
817712282-982382211-43947,2016,WEMBLEY SPORTS BAR AS,1.1.6.1,Eateries,3012106,SCHOUTERRASSEN 25,59.931547470651,10.7831077412988,,,0.236
917430861-971761539-56213,2016,SAGENE LUNSJBAR AS,1.1.6.1,Eateries,3011606,MARIDALSVEIEN 153,59.9375357841486,10.7565094079175,,,13.154000000000002
979928289-974384574-147400,2016,SJØSTJERNENE AS,1.1.6.1,Eateries,3015701,HOVEDØYA,59.89868842514879,10.7319313156351,,,8.139
997471601-994349546-105793,2016,TORGHUKEN,1.1.6.1,Eateries,19020108,STRANDGATA 24,69.64734816286,18.9541243661374,,Nerstranda Senter,5.572
942852010-972086630-129752,2016,THEA AS,1.1.6.1,Eateries,3010501,GABELS GATE 11,59.9127725458889,10.7092639637433,,,11.098
995190923-895375772-128668,2016,TROMSØ JERNBANESTASJON AS,1.1.6.1,Eateries,19020107,STRANDGATA 33,69.6476542387319,18.9552911787122,,,14.774
912973166-913020510-666685,2016,STUA AS,1.1.6.1,Eateries,3012106,TRONDHEIMSVEIEN 139 B,59.9295462513904,10.7783297951541,,,9.06
993488488-986698477-67739,2016,VICTORIAHAVEN AS,1.1.6.1,Eateries,4030406,GRØNNEGATA 52,60.79423747196429,11.0742209923987,,CC Hamar,0.006
997307399-997313380-167302,2016,SYNG AS,1.1.6.1,Eateries,3012504,HEIMDALSGATA 35,59.9144588179486,10.7668621721441,,,12.338
987140070-987153857-66724,2016,UTE SMØLA-SENTERET,1.1.6.1,Eateries,15730107,TØMMERVÅGVEGEN,63.4634416997625,8.01387843402422,,Smølasenteret,0.0
997559142-997687620-163556,2016,XILAIDENG RESTAURANT AS,1.1.6.1,Eateries,7090202,KONGEGATA 33,59.05462830978729,10.027269354801,,,2.552
913246071-913255534-677254,2016,TASTINGROOM AS,1.1.6.1,Eateries,12010130,ENGEN 8,60.3918094619844,5.32080864267555,,,6.162999999999999
971000953-973967886-24380,2016,RIVERSIDE,1.1.6.1,Eateries,1010206,KONVALLVEIEN 5,59.1317267415629,11.3972519150631,,,0.192
999141501-999171400-325167,2016,YAMKEE 1 AS,1.1.6.1,Eateries,10010801,TOLLBODGATA 14,58.14510537352611,7.99559475959154,,Sandens,0.198
897067072-997073835-158373,2016,SCULPTURE HOSPITALITY AS,1.1.6.1,Eateries,3013606,HAAKON TVETERS VEI 12,59.90100376738671,10.8359125932966,,,1.845
985722528-976034635-54678,2016,UTESTEDET KLIMT,1.1.6.1,Eateries,2310202,STORTORGET 7,59.9572703326009,11.0496329641605,,Lillestrøm Torv,13.056
996414698-996517691-166474,2016,ROYAL INDIA,1.1.6.1,Eateries,4030406,STRANDGATA 37,60.7933589851758,11.0727178398857,,Kvartal 48,7.497000000000001
997953118-897958112-422846,2016,SUPPOLOGEN AS,1.1.6.1,Eateries,12011314,SKJOLDLIA 25,60.3071215143263,5.3308541685384405,,,0.44
898638162-981074858-53846,2016,TAJMAHAL OSLO AS,1.1.6.1,Eateries,3012006,VOGTS GATE 31 A,59.9324993712858,10.7630793094986,,,2.2880000000000003
913641469-913690893-695215,2016,RØDTANGEN KRO OG DAGLIGVARE AS,1.1.6.1,Eateries,6280108,BREVIKVEIEN 9,59.5292086266611,10.4199480703297,,,4.475
917541019-989478362-81782,2016,BRUNELLO AS,1.1.6.1,Eateries,3010211,STENERSGATA 10,59.913265877621,10.752615423006198,,Arkaden Shopping,2.485
982009405-972003859-23614,2016,VINDFJELL AS,1.1.6.1,Eateries,7280110,NORDGARDSETERVEIEN 16,59.299532328617104,9.82592062755856,,,3.742
880622722-980642070-84091,2016,SOLID AS,1.1.6.1,Eateries,19020105,STORGATA 73,69.650144338356,18.9568133287242,,Torgsenteret Tromsø,14.388
913947800-973204769-43278,2016,SZECHUAN AS,1.1.6.1,Eateries,3012208,TRONDHEIMSVEIEN 64,59.9230895789538,10.7715792922758,,,4.043
988194735-971940050-19022,2016,SENJATROLLET AS,1.1.6.1,Eateries,19290109,FINNSÆTERVATNET,69.41728561143441,17.1630014666943,,,1.857
915167047-973106252-45805,2016,VEIKROA AS,1.1.6.1,Eateries,7130205,SANDEBUKTVEIEN 4,59.5842147025426,10.21689582073,,,1.801
999628613-911589567-491483,2016,STJERNEHIMMELEN,1.1.6.1,Eateries,9260219,SENTERVEIEN 30,58.262300278276,8.396651335981911,,Lillesand Senter,2.642
912547531-912580938-646098,2016,TAMBUREN AS,1.1.6.1,Eateries,1061105,FÆRGEPORTGATEN 78 B,59.204060600469,10.954392640960698,,,6.815
917091870-996273024-154497,2016,GARBORGSTOVA AS,1.1.6.1,Eateries,11210104,HETLANDSGATA 11,58.7337948300976,5.65056477388138,,Brynesenteret,0.555
999640737-911553473-512678,2016,TAVOY,1.1.6.1,Eateries,3010504,SOLLIGATA 2,59.9143717959056,10.7204785177999,,,13.125
887740712-982355796-44542,2016,SANREMO RESTAURANT AS,1.1.6.1,Eateries,16017208,ØVRE FLATÅSVEG 1 A,63.3736511648409,10.3467848622543,,,8.976
938216363-995216221-126934,2016,TOOTHFAIRY SERVERING AS,1.1.6.1,Eateries,2191416,BRAMBANIS VEI 2,59.8898474852802,10.5260121149191,,,11.499
979868901-979874464-66174,2016,SKU BARE,1.1.6.1,Eateries,18040814,TIURVEIEN,67.2906212137749,14.5749411306236,,,6.046
914301971-914329345-720835,2016,ZUPPA SARTOR,1.1.6.1,Eateries,12460407,SARTORVEGEN 12,60.3584954609108,5.12407530909044,,Sartor Storsenter,8.665
986896481-986914439-68386,2016,VINGSANDKROA AS,1.1.6.1,Eateries,16330103,FORØYVEIEN 1,64.30076518610029,10.5042746954546,,,1.116
993045411-993077569-133003,2016,VIN TIL FOLKET AS,1.1.6.1,Eateries,3010906,INGELBRECHT KNUDSSØNS GATE 1,59.92733049337,10.722652550941,,,9.297
998877776-999020984-392750,2016,ZHONG GUO AS,1.1.6.1,Eateries,18200207,BAKKEGATA 4,66.0167659321948,12.610894108366802,,,1.65
913123972-913174755-674061,2016,SANSEN FOR SMAK AS,1.1.6.1,Eateries,16012111,KRISTINE BONNEVIES VEG 20,63.4289184391418,10.4395134783478,,,0.775
996907589-996919285-159947,2016,TORVETS CAFE & PUB AS,1.1.6.1,Eateries,10180114,HØLLEVEIEN 58,58.086809521587,7.815366678010969,,,1.692
998676258-876284782-18778,2016,RØKLAND KAFE OG GRILLKJØKKEN,1.1.6.1,Eateries,18400208,MOSEBAKKEN 2,66.98370711425771,15.3122975935812,,Røkland Forretningssenter,3.557
913459520-913496337-686745,2016,TØYENGATA BODEGA AS,1.1.6.1,Eateries,3012504,HEIMDALSGATA 37,59.9143211180002,10.767087449667198,,,3.882
970173587-872449442-18759,2016,TVERKEN STIFTELSE,1.1.6.1,Eateries,6020111,KRISTIAN BRENNERS VEI 173,59.7609993858199,10.1189128305146,,,0.341
997930029-986086374-62518,2016,THE KASBAH AS,1.1.6.1,Eateries,3011405,MARIDALSVEIEN 44 C,59.9284228109865,10.7516793961738,,,7.15
971005874-974006847-56209,2016,SANDMOEN KRO AS,1.1.6.1,Eateries,16017408,SANDMOFLATA 3,63.33153709657411,10.3559604182958,,,11.827
971642661-975960099-30724,2016,TRONDHEIMSVEIEN DRIFT AS,1.1.6.1,Eateries,3012208,HAMMERFESTGATA 2,59.9248429643807,10.7740361770149,,,4.284
980384101-971854081-24199,2016,SENJASTUA AS,1.1.6.1,Eateries,19310406,LAUKHELLAVEIEN 2,69.2444634098953,17.9495945670249,,,11.647
983335217-983354068-62499,2016,VILLA PROVENCE AS,1.1.6.1,Eateries,7060108,KIRKEGATA 7,59.1324590128306,10.2222554821916,,Hvaltorvet Kjøpesenter,0.252
995464063-995473313-118423,2016,THE BULL INN AS,1.1.6.1,Eateries,8210202,BØGATA 11,59.414573456808206,9.05951349091952,,Sønstebøtunet,6.053999999999999
987709782-987737158-95329,2016,VOSS KAFEDRIFT AS,1.1.6.1,Eateries,12350402,HARDANGERVEGEN 25,60.62883182806621,6.434993404048099,,Amfi Voss,3.883
998170745-998283647-455115,2016,SAN SEBASTIAN TAPAS OG VINBAR,1.1.6.1,Eateries,16011206,MUNKEGATA 21,63.4309267953736,10.395669350320698,,,14.825
998878551-999073255-352654,2016,STRANDHAVEN AS,1.1.6.1,Eateries,9260212,STRANDGATA 10,58.2487290670045,8.37800540416694,,,4.093999999999999
915998283-972242527-32604,2016,LB KJØKKEN AS,1.1.6.1,Eateries,3015504,DRAMMENSVEIEN 130,59.9214553267817,10.6880352054443,,,7.181
968124773-972370207-46217,2016,STAALEHUSET HAUGESUND AS,1.1.6.1,Eateries,11060403,DANIEL DANIELSENS GATE 55,59.4165651550871,5.25239629678155,,,3.033
983983936-999434177-473537,2016,SPORTBAREN I OSLO,1.1.6.1,Eateries,3010306,KARL JOHANS GATE 33,59.9139356023458,10.738798131298198,,Paleet,6.999
912271471-912273865-632298,2016,VT CATERING AS,1.1.6.1,Eateries,2310305,TÆRUDGATA,59.9521579407512,11.0474189140814,,,0.0
950872268-972273260-27000,2016,XO MAT & VINHUS AS,1.1.6.1,Eateries,11030509,SKAGEN 10,58.970813746592704,5.73187257700374,,Arkaden Torgterrassen,0.0
985663920-985699399-103649,2016,STEDET AS,1.1.6.1,Eateries,18680205,STORGATA 46,68.9152783899193,15.0900914421523,,,1.767
986502270-976175557-47873,2016,SCRUFFY MURPHY'S,1.1.6.1,Eateries,12010116,TORGET 15,60.395259511993,5.3262858929934405,,,6.185
987247843-987265965-73758,2016,RIVIERA FUSION,1.1.6.1,Eateries,1061305,STORGATA 21,59.21368374391021,10.9337972522075,,,3.579
993110760-993157783-133431,2016,SYDØST AS,1.1.6.1,Eateries,18040102,TORVGATA 2,67.2849803040135,14.379590620904802,,Koch,11.606
898686612-997008146-164822,2016,SUNDT OG GODT SKI STORSENTER,1.1.6.1,Eateries,2130504,JERNBANESVINGEN 6,59.71641704226379,10.8360301080443,,Ski Storsenter,2.4130000000000003
971179929-975238334-576289,2016,STARDALEN BYGDETUN AS,1.1.6.1,Eateries,14310205,MUNDALSVEGEN,61.5707870985246,6.484329818882671,,,1.209
988551686-982050073-55121,2016,SELSKAPSARRANGØRENE GH AS,1.1.6.1,Eateries,16012204,HASSELBAKKVEGEN 5 A,63.4368385082673,10.4954865805998,,,3.0460000000000003
912176193-985967504-106969,2016,VERONA MAT OG VINHUS AS,1.1.6.1,Eateries,17020201,JAKOB WEIDEMANNS GATE 3,64.01534787566811,11.4941367825495,,,3.934
912256146-984973047-89694,2016,SKIPUBEN,1.1.6.1,Eateries,4280503,STORVEGEN 6,61.3123682022259,12.259739158549198,,,11.55
946635022-974287935-45289,2016,THE GREAT WALL AS,1.1.6.1,Eateries,11220104,KONGSGATA 1,58.7794973633568,5.837348966619119,,,6.729
985703140-985749639-107587,2016,VILLA PARADISO,1.1.6.1,Eateries,3012305,OLAF RYES PLASS 8,59.9235009602713,10.7576191744803,,,40.791
988866423-899468422-616237,2016,TOKLE AS,1.1.6.1,Eateries,16011205,MUNKEGATA 25,63.4322116600994,10.3946093823242,,,0.5
913426142-913525205-687449,2016,TANTE POSE,1.1.6.1,Eateries,17560502,STRANDHAUGVEGEN 3,63.8158870722792,11.0023571664811,,,0.479
971507462-974864193-41028,2016,STEAKERS TROMSØ AS,1.1.6.1,Eateries,19020105,SJØGATA 39,69.6506808120467,18.959313966579,,,24.479
974480816-974514915-132993,2016,RORBUA I VEGSUNDET AS,1.1.6.1,Eateries,15310208,SOLAVÅGSEIDET 79,62.4249899662714,6.32114493111474,,,0.738
913239393-913324617-680048,2016,VESTGAARD AS,1.1.6.1,Eateries,11200208,NESEVEGEN 81,58.76691834639979,5.57991104280355,,,1.089
998913462-998925614-486849,2016,SUNTAO AS,1.1.6.1,Eateries,8050404,STORGATA 30,59.0530991270333,9.69994409245144,,,0.376
834929872-972009938-36697,2016,RESTCO AS,1.1.6.1,Eateries,5010603,ELVEGATA 19,61.1168727878698,10.4666356039903,,,21.267
912344665-912423026-640055,2016,WHATSOUP AS,1.1.6.1,Eateries,2191214,VALLERVEIEN 63 C,59.914828564888495,10.5481527384679,,,5.452000000000001
913278704--104082-104082,2016,TID FOR MAT LILLEHAMMER AS,1.1.6.1,Eateries,5010402,MAIHAUGVEGEN 1,61.1119478854776,10.4777461714045,,,8.788
913820452-993043974-213645,2016,TASTY HOUSE AS,1.1.6.1,Eateries,5420110,JERNBANEVEGEN 28,60.98506993649261,9.2391929414572,,,4.558
989138804-972339687-30697,2016,SISSIL AS,1.1.6.1,Eateries,9010101,KRAGS GATE 1,58.7205647383456,9.23364448266599,,,3.08
896979922-971783958-22153,2016,TROLLVANN AS,1.1.6.1,Eateries,3015901,TROLLVANNSVEIEN 3,59.96171830920179,10.8060802059905,,,2.579
981314948-981331109-62116,2016,WONG AS,1.1.6.1,Eateries,11210104,STORGATA 38,58.73584025730761,5.64324684591328,,Brynesenteret,9.712
991903895-997356691-164722,2016,ZUPPA MATBØRSEN,1.1.6.1,Eateries,12010116,VÅGSALLMENNINGEN 1,60.3939816437684,5.32590326761551,,Xhibition,36.166
994987232-995180375-118942,2016,TORINO MONA LISA AS,1.1.6.1,Eateries,20120607,SVANEVEIEN 1,69.9544131557155,23.215041329948804,,,6.496
896353802-996358674-155743,2016,URDIHUSET AS,1.1.6.1,Eateries,12010202,MICHAEL KROHNS GATE 62,60.38008433036801,5.3212975670926,,,4.59
913266803-913283554-678761,2016,VERTSHUSET LANDGANGEN,1.1.6.1,Eateries,17180202,HAVNEGATA 2,63.55305402991961,10.2225941821416,,,3.026
913368398-995259052-127918,2016,SOLLI DRIFT AS,1.1.6.1,Eateries,3010504,HENRIK IBSENS GATE 90,59.9145732736431,10.7194212663537,,,0.0
982571065-988009369-88131,2016,TEALOUNG,1.1.6.1,Eateries,3012304,THORVALD MEYERS GATE 33 B,59.9259974779605,10.758994650157302,,,4.44
913205529-913365887-681562,2016,STUDENTEN 1 AS,1.1.6.1,Eateries,3010808,PARKVEIEN 1 A,59.922464640714,10.7318198157104,,,0.037
995789086-895794422-157785,2016,ØTM AS,1.1.6.1,Eateries,20040102,PARKGATA 4,70.66393375311691,23.6793018834377,,,11.605
912780201-912789233-654733,2016,SNEDIG AS,1.1.6.1,Eateries,12010106,HOLBERGSKAIEN 1,60.3967937962121,5.31741175936788,,,18.251
986838570-986844783-87550,2016,TANGO BAR & KJØKKEN AS,1.1.6.1,Eateries,11030807,NEDRE STRANDGATE 23,58.970624783766496,5.728381681443469,,Arkaden Torgterrassen,24.321
912054101-980609421-75557,2016,YANG FAN RESTAURANT AS,1.1.6.1,Eateries,1050205,JERNBANEGATA 14,59.28228047891261,11.1137971164301,,,0.0
950872357-972162221-42914,2016,VENEZIA RESTAURANT,1.1.6.1,Eateries,7220201,SMIDSRØDVEIEN 7,59.25263239597201,10.4176690092491,,,4.69
984012616-973945130-23170,2016,SHAKERS KRISTIANSAND AS,1.1.6.1,Eateries,10010801,DRONNINGENS GATE 8,58.1438943565594,7.99533832784533,,Sandens,15.864
852829052-972052256-126701,2016,SOLLIFJELLET ALPINSENTER BA,1.1.6.1,Eateries,19030605,SOLLIA,68.8018908931718,16.4045027567334,,,3.857
898474232-998493455-464900,2016,STUDIO 26 AS,1.1.6.1,Eateries,16011204,NORDRE GATE 26,63.4340294033012,10.3969027677855,,Byhaven,16.908
957169295-972209902-30690,2016,SJERNARØY MARITIM AS,1.1.6.1,Eateries,11410114,STRANDA,59.253486561392,5.8263925956563405,,,1.115
960197275-973757857-33876,2016,UMOE AS,1.1.6.1,Eateries,2190814,FORNEBUVEIEN 84,59.9026063858749,10.6316143102353,,,0.5
988417106-988429112-73751,2016,SØRLANDSBADET AS,1.1.6.1,Eateries,10320303,ROSFJORDVEIEN,58.1226126342012,7.052727057509481,,,12.47
995679671-976552636-66181,2016,SUNDE FJORD HOTEL AS,1.1.6.1,Eateries,15310208,SUNDEVEGEN,62.41461112282951,6.327404863678759,,,3.856
959437041-972129704-31787,2016,TANG RESTAURANT AS,1.1.6.1,Eateries,19020107,BANKGATA 7,69.6489978733534,18.9582516520728,,,15.459
961450543-983792286-55038,2016,WIEN AS,1.1.6.1,Eateries,3010904,MAJORSTUVEIEN 41,59.9283137016416,10.7154387629956,,,4.77
986502262-985715939-104094,2016,TORGET DRIFT 9 AS,1.1.6.1,Eateries,12010621,SANDVIKSBODENE 9,60.40696355198529,5.32145797840763,,,21.017
888024042-988046949-79086,2016,RÅDHUSKROKEN AS,1.1.6.1,Eateries,3010102,RÅDHUSGATA 28,59.9098306291155,10.7407382831322,,,16.69
938178852-971742178-38668,2016,SPARBU KRO AS,1.1.6.1,Eateries,17020106,STEINKJERVEGEN 1207,63.917844153116505,11.432763621479,,,4.718
996341631-993266256-114321,2016,TABIBITO RESTAURANT AS,1.1.6.1,Eateries,3010306,STORTINGSGATA 20,59.9137692028255,10.7349348604743,,,13.252
992472499-992512555-95817,2016,ROSA NAPOLI AS,1.1.6.1,Eateries,5110205,KYRKJEVEGEN 5,62.073779760859296,9.12385616266527,,Dombås Senter,4.237
894587032-994602462-117833,2016,STRATOS KULTUR & EVENT AS,1.1.6.1,Eateries,3010205,YOUNGSTORGET 2,59.9145532722071,10.7496783452831,,,23.365
915299083-987159413-62933,2016,SKOLESTUA HAUKLAND AS,1.1.6.1,Eateries,18600114,HAVERRINGEN 3,68.2926736593624,13.8656607951382,,,0.5
996428796-996438287-154055,2016,VE TO AS,1.1.6.1,Eateries,1040505,HENRICH GERNERS GATE 6,59.4382347359996,10.6643060622805,,,1.084
998449650-986040617-111456,2016,VALENTINAS MUSIKKBAR AS,1.1.6.1,Eateries,8140301,STRANDGATA 2,59.047867907831,9.69375999571648,,,1.256
985149410-985181837-62087,2016,TINIUS AS,1.1.6.1,Eateries,10370206,INDUSTRIGATA,58.32302456621839,6.96773117922751,,,2.5980000000000003
817068952--634913-634913,2016,VANGEN JOHS AS,1.1.6.1,Eateries,12350606,VANGSGATA 42,60.62909819388911,6.42175137152018,,,0.25
912542815-912583031-645981,2016,SUNN OG NAM MOLDE AS,1.1.6.1,Eateries,15020305,LINGEDALSVEGEN,62.73924615072289,7.17827459836136,,Amfi Roseby,5.978
976468635-976474465-54662,2016,TRIPPEL M AS,1.1.6.1,Eateries,9064203,ÅSBIEVEIEN 2,58.45841753512529,8.71219387878946,,,6.33
897515032-997527941-162182,2016,ROMLINGER AS,1.1.6.1,Eateries,7010705,STORGATA 23,59.4159667879441,10.4818482875019,,,5.808
912224775-912362639-637793,2016,VILTKROA MAT FRA FJELL OG FJORD,1.1.6.1,Eateries,19110104,KVALSAUKAN 11,68.6249583896996,15.773494671563402,,,3.0010000000000003
915881157-986981713-9664,2016,SANDBAKKEN SPORTSSTUE AS,1.1.6.1,Eateries,3015805,ENEBAKKVEIEN 870,59.82871692106789,10.9166765683849,,,1.319
985968233-985988072-105807,2016,SKOROVASMAT AS,1.1.6.1,Eateries,17400101,FURUVEIEN 4,64.64420336022259,13.1112306415314,,,1.058
911934051-911988917-622900,2016,GIMSØY SPISERI,1.1.6.2,Restaurants,8060406,GIMSØY PLASS 7,59.1954439864193,9.611001483937429,,,1.652
960026640-999369944--999369944,2016,FINNEGAARDEN AS,1.1.6.2,Restaurants,12010117,ROSENKRANTZGATEN 6,60.396210423901,5.32654198847306,,,0.5
984441258-984470436-95504,2016,KJØKKEN OG BAR,1.1.6.2,Restaurants,3010205,MØLLERGATA 16,59.9146974503956,10.747611157355198,,Strøget,11.492
991955739-991993606--991993606,2016,ANDYS PUB TEMPEST AS,1.1.6.2,Restaurants,3010503,FROGNERVEIEN 12 B,59.9163984046584,10.7131370085399,,,8.606
948822156-971935308-30103,2016,SJØLOFTET BREVIK,1.1.6.2,Restaurants,8050404,STORGATA 6,59.0547862024617,9.70018749549454,,,27.811
957718442-972098744-42884,2016,CITYHAVEN AS,1.1.6.2,Restaurants,16011207,KONGENS GATE 30,63.43079969934529,10.3911939074433,EGON,,24.267
971222077-973875272-56208,2016,PUBLIKUMS TRØST KAI OG MATTIS KAFFE,1.1.6.2,Restaurants,4030406,TORGGATA 53,60.7946336922111,11.0724088795297,,Kvartal 48,3.967
991933832-992264640-95409,2016,KAPLAN MONA LISA,1.1.6.2,Restaurants,4150201,STASJONSVEGEN 15,60.8193321467884,11.3418672300892,,,2.041
916258259-916357672-803223,2016,EGON FREDRIKSTAD,1.1.6.2,Restaurants,1061306,NYGAARDSGATA 50,59.213850903839,10.9379604344236,EGON,Torvbyen,8.748
947333909-972143391-24906,2016,GAMLE LOGEN,1.1.6.2,Restaurants,3010101,GREV WEDELS PLASS 2,59.9071888503687,10.7414440497829,,,19.195
979619545-979658370-65953,2016,KAKTUS MAT & VINHUS,1.1.6.2,Restaurants,3015303,LILLEAKERVEIEN 23,59.918941951266,10.6366396108525,,,7.653
985462364-985489599-54555,2016,GARCIA,1.1.6.2,Restaurants,11240601,ÅSENVEGEN,58.8924238547857,5.66886276264948,,,7.132000000000001
985830282-985928096-102546,2016,KOIA,1.1.6.2,Restaurants,5200110,BRUGATA 25,61.53203485891971,10.1396306995721,,,2.725
992226986-992265434--992265434,2016,PLØENSBURG DRIFT AS,1.1.6.2,Restaurants,3010205,YOUNGSTORGET 2,59.9145532722071,10.7496783452831,,,0.026
992246383-992263776-90002,2016,BØLGEN & MOI NY HELLESUND,1.1.6.2,Restaurants,3014513,NYDALSVEIEN 30 A,59.95022694925471,10.7645580621406,BØLGEN & MOI,,5.224
813054752-972352225-43272,2016,GATE OF INDIA,1.1.6.2,Restaurants,3010904,BOGSTADVEIEN 66 A,59.928660214538,10.7157250680455,,,7.916
813470462-996733572-150808,2016,HANKØSUND RESTAURANT,1.1.6.2,Restaurants,1065306,VIKANEVEIEN 409,59.2136997424835,10.7888397156759,,,2.8510000000000004
915729762-915749909-779603,2016,EN SMAK AV ASIA,1.1.6.2,Restaurants,18670105,SKAGENVEIEN 1,68.6209652539808,14.4639584712921,,,0.858
916714432-916737653-820544,2016,FINESTO,1.1.6.2,Restaurants,8050201,PRESTEMOEN 12,59.12123089389979,9.70862189542839,,,7.436
990629919-990705364-82585,2016,KAIKANTEN MAT OG CATERING,1.1.6.2,Restaurants,19030402,SJØGATA 8,68.8013211943897,16.5444590661813,,Bertheustorget,4.122
992352353-992380128-115763,2016,KJØBMANDSPLASSEN,1.1.6.2,Restaurants,11030509,SKAGENKAIEN 5,58.9706295765863,5.73123559590246,,,24.773000000000003
898461572-993150037-131857,2016,PAVILJONGEN,1.1.6.2,Restaurants,2160601,HÅKONSKASTET 5,59.8393515951124,10.6451696075267,,,3.344
967368466-972388610-44234,2016,SOLSIDEN RESTAURANT,1.1.6.2,Restaurants,3010101,AKERSHUSSTRANDA 11,59.9076303757967,10.7345784796259,,,31.01
988230359-982184967-56873,2016,NOOR,1.1.6.2,Restaurants,3010103,ØVRE SLOTTSGATE 10,59.9122244570254,10.7417400040247,,Paleet,9.551
992455675-992555106--992555106,2016,CATENA TRADING AS,1.1.6.2,Restaurants,17190603,OLAF EKLOS VEG 3,63.7432177826447,11.3026212800613,,,0.8109999999999999
912276600-912291707-632962,2016,KJERSTIS FESTBORD,1.1.6.2,Restaurants,2360402,LEIRVEGEN 23,60.12878748184399,11.4794241264837,,,1.054
916673264-916735022-820785,2016,BAYARD,1.1.6.2,Restaurants,1061806,FRESKOVEIEN 16,59.2169938737189,10.944339248461,,,0.836
981632990-917090521-833509,2016,SPIRET SPISERI,1.1.6.2,Restaurants,15390406,ÅNDALGATA 5,62.5655666480243,7.68872732234631,,,7.02
911588242-992010045-131286,2016,BIG HORN STEAK HOUSE HARSTAD,1.1.6.2,Restaurants,19030401,STRANDGATA 30,68.8033325994954,16.5432601800049,BIG HORN STEAK HOUSE,,8.058
915429807-815448162-768302,2016,TRATTORIA ITALIANA,1.1.6.2,Restaurants,12010106,STRANDGATEN 89,60.39600465613941,5.316828827843059,,,8.881
995209713-984698720--984698720,2016,LILLE MELISSA CAFEBAR AS,1.1.6.2,Restaurants,16210202,RÅDHUSGATA 5,63.68660606194271,9.66505734379384,,,1.136
997174704-972127795-24965,2016,SCALA SPISERI KVADRAT,1.1.6.2,Restaurants,11020202,GAMLE STOKKAVEI 1,58.876265342403606,5.72177237643006,,Kvadrat,9.417
883180712-991525084-88106,2016,RESTAURANT BA,1.1.6.2,Restaurants,6280205,FURUSTIEN 13,59.57232138571551,10.6069767616742,,,13.689
912295354-893161392-74483,2016,HÅNDVERKEREN RESTAURANT & PUB AS,1.1.6.2,Restaurants,10010802,RÅDHUSGATA 15,58.146958674431495,7.9966451686667,,,19.741
916729332-916747624-820972,2016,GREASY FOOD,1.1.6.2,Restaurants,3010205,STORGATA 25,59.914012342294505,10.751188193251,,,0.233
985142602-985183007-64579,2016,HAVSMAK,1.1.6.2,Restaurants,3010310,HENRIK IBSENS GATE 4,59.9151080223631,10.7284583690413,FURSETGRUPPEN,,21.624
999183751-999206204-306176,2016,KULTURHUSET I OSLO,1.1.6.2,Restaurants,3010205,YOUNGSTORGET 3,59.9142773878488,10.7491487220155,,Strøget,57.709
917295328-997995562-536986,2016,VICTORIA CAFE & DINE AS,1.1.6.2,Restaurants,8060102,NEDRE HJELLEGATE 21,59.2043373468152,9.60662525729269,,,0.598
957987338-971816872-24390,2016,LIGOSTUA AS,1.1.6.2,Restaurants,6020107,BETZY KJELSBERGS VEI 263,59.7566920282647,10.1238423146795,,,9.23
997008537-897023172-159345,2016,MANEKI NEKO AS,1.1.6.2,Restaurants,3012901,SCHWEIGAARDS GATE 53,59.908638008603496,10.767725995565698,,,2.901
998392519-998479878-540525,2016,SMELTEHUSET AS,1.1.6.2,Restaurants,12280311,RØLDALSVEGEN,60.0702768238974,6.54706966232947,,,17.94
813035782-913117506-671744,2016,IMA TURSENTER,1.1.6.2,Restaurants,19390109,STORNESVEIEN,69.376561836768,20.0365212813675,,,0.392
814980332-972142646-18799,2016,HANESTAD KRO,1.1.6.2,Restaurants,4320201,GAMLE KONGEVEI 4103,61.8386239765316,10.8827947306314,,,6.613
915875068-815923022-786371,2016,LITTLE INDIA,1.1.6.2,Restaurants,8060102,BLEKEBAKKVEGEN 3,59.2051713013558,9.60495906305153,,,1.773
915992099-916049706-791091,2016,GANDDAL CHINEESE TAKEAWAY,1.1.6.2,Restaurants,11020503,LUNDEGEILEN 20,58.82023814160729,5.7123208783548405,,,0.732
917034680-917062234-832136,2016,"XICH LO, ASIAN BAKERY & TAPAS",1.1.6.2,Restaurants,3010310,RUSELØKKVEIEN 3,59.914242498244,10.7289857425645,,,1.034
980040208--68038-68038,2016,HOVDEN SERVERING,1.1.6.2,Restaurants,9410104,HOVDENUTVEGEN,59.56879111393821,7.33525252349475,,,0.1
981936914-982017645-54856,2016,BØLGEN & MOI BRISKEBY,1.1.6.2,Restaurants,3010612,LØVENSKIOLDS GATE 26,59.922364745442,10.715623665323198,BØLGEN & MOI,,26.558000000000003
996188205-996212173-153696,2016,MAESTRO F & B,1.1.6.2,Restaurants,11031736,FABRIKKVEIEN 8,58.896762825029896,5.69750977609925,,,19.08
997151704-897167492-165899,2016,ASIAN RESTAURANT,1.1.6.2,Restaurants,12190510,HOLLUNDSDALEN 2,59.798460752789296,5.20848787751772,,,2.021
812507532-912604578-646941,2016,OSENSJØENS ADVENTURE,1.1.6.2,Restaurants,4290305,GAMMELVEGEN 27,61.3008781137547,11.7616235552452,,,1.834
911695502-911713799-509405,2016,MAT & PRAT,1.1.6.2,Restaurants,10320201,FIBOVEIEN 1,58.1563590918982,7.101673201845,,Handelsparken Senter,2.894
913973925-997315022-159716,2016,RESTAURANTHUSET FABEL,1.1.6.2,Restaurants,1061305,STORGATA 11,59.2123391709886,10.9360161436505,,,11.474
915837700-915870120-784368,2016,KORSVEGEN RESTAURANT & PIZZERIA,1.1.6.2,Restaurants,16530703,RÅDHUSVEGEN 3,63.15955873615621,10.0992566686939,,,2.721
917005400-917015295-831103,2016,BRYGGA STEAK & RIBBS,1.1.6.2,Restaurants,1010204,ROKKEVEIEN 5 A,59.1392174627517,11.3809129563526,,,4.303999999999999
937140894--24214-24214,2016,KARJOLEN AS,1.1.6.2,Restaurants,12210206,RUNDEHAUGEN 39,59.7632289589726,5.4598758375088,,,3.005
987089989-987164271-87529,2016,RESTAURANTEN,1.1.6.2,Restaurants,7160201,REGATA 2,59.370975609637,10.2641468686316,,Re-torvet,5.634
993554561-981278143-61979,2016,GRÅBERG RESTAURANT,1.1.6.2,Restaurants,4270301,TORGGATA 10,60.88547962574079,11.560486645557498,,,4.707
995283131-895779822-15218,2016,MILANO RESTAURANT NARDO CENTERET,1.1.6.2,Restaurants,16014302,HANS BAUCKS VEG 1,63.403008258575,10.4276289417315,,Nardo Centeret,9.714
995368366-994742531-146211,2016,HEMNES MAT OG VINHUS,1.1.6.2,Restaurants,18320103,SØRLANDSVEGEN 14 A,66.2247035936671,13.6046553656128,,,3.123
997887778-997954270-514126,2016,HELLAS HAMAR,1.1.6.2,Restaurants,4030406,TORGGATA 83,60.795375905478494,11.0685425452886,,Torghjørnet Hamar,4.006
999196764-999217966-307316,2016,EGER & CO. AS,1.1.6.2,Restaurants,6050103,STORGATA 4,60.16533107147429,10.256232393555,,Kuben Hønefoss,14.128
915929214-916222289-797702,2016,ISTANBUL BBQ,1.1.6.2,Restaurants,2130504,JERNBANEVEIEN 6,59.71919612620271,10.8364136841757,,Ski Storsenter,0.887
966407751-999373860-435460,2016,NES GJESTEGAARD,1.1.6.2,Restaurants,4120923,TINGNESVEGEN 215,60.7933368756883,10.868780462569198,,,0.12
997439090-997498860-159828,2016,LE MONDE,1.1.6.2,Restaurants,10010801,KIRKEGATA 15,58.1457441152835,7.99594881241242,,Sandens,5.464
915606806-915670628-775939,2016,ANKERET BRYGGE,1.1.6.2,Restaurants,16270211,STRANDGATA 7,63.8860081706924,9.86833310668136,,,2.129
991319433-991405593-95398,2016,BIG HORN STEAKHOUSE FREDRIKSTAD,1.1.6.2,Restaurants,1061305,STORGATA 15,59.2132691602734,10.9344921020767,BIG HORN STEAK HOUSE,,5.867000000000001
896825852-896919482-155925,2016,LOKST UTØVE AS,1.1.6.2,Restaurants,12280311,KREMARVEGEN 3,60.068866322396005,6.545961543260879,,,2.301
966015357-972345547-56274,2016,FLØIEN FOLKERESTAURANT,1.1.6.2,Restaurants,12010504,BELLEVUEBAKKEN 9,60.384790372438005,5.35543048792284,,,20.702
967192058-972376817-47828,2016,MÅNEFISKEN,1.1.6.2,Restaurants,3011406,SAGVEIEN 23 A,59.9309915201599,10.7562707183184,,,8.677
977024250-977344964--977344964,2016,ÅSTVEIT INVEST AS,1.1.6.2,Restaurants,12010621,SANDVIKSBODENE 9,60.40696355198529,5.32145797840763,,,22.384
989636405-989662570-114760,2016,BECKS BRASSERIE & BAR LARVIK,1.1.6.2,Restaurants,7090102,FRITZØE BRYGGE,59.0500929816829,10.0206537018955,,Fritzøe Brygge,18.407
990478775-989414038-95545,2016,FELLINI DRAMMEN,1.1.6.2,Restaurants,6020302,BRAGERNES TORG 2 A,59.7441205225079,10.2037723499262,FELLINI,,5.282
998896061-980437191-62145,2016,SKUTEBRYGGA DRAMMEN,1.1.6.2,Restaurants,6020303,NEDRE STRANDGATE 2,59.742494764808704,10.2047813618792,,Magasinet Drammen,25.643
915729525-915750613-779709,2016,ØYVIND BJØRLO,1.1.6.2,Restaurants,14430205,EIDSGATA 10,61.906907165974296,5.9901140477200805,,Amfi Nordfjord,1.819
915998208-916011792-789964,2016,ILCAPRINO,1.1.6.2,Restaurants,12010113,HÅKONSGATEN 15,60.39049594839479,5.31914088533672,,,1.16
916942508-916961669-829071,2016,CORNER RESTAURANT OG BAR,1.1.6.2,Restaurants,15050201,STORGATA 7,63.1105533183811,7.73206923716496,,Amfi Storkaia Brygge,1.5419999999999998
950628340-972141402-19076,2016,LYSEFJORD-HELLEREN,1.1.6.2,Restaurants,11290105,BYGDAVEIEN 186,58.90391032714211,6.10554033409599,,,2.9410000000000003
979542100-971975954-24398,2016,PANDA,1.1.6.2,Restaurants,3014106,REFSTADVEIEN 44,59.94203294354279,10.808013116381302,,,9.992
980090752-880115812-18505,2016,BECKLUNDS RESTAURANT,1.1.6.2,Restaurants,17190701,KIRKEGATA 41,63.74642125600021,11.298240043494598,,,18.291
981384024-972356271-43650,2016,RESTAURANT GLIPP,1.1.6.2,Restaurants,10010802,RÅDHUSGATA 11,58.1456368670811,7.9941849975429,,Postgården,2.9
816307732-992738626-105411,2016,PONZU RESTAURANT AS,1.1.6.2,Restaurants,3010605,BYGDØY ALLÉ 62,59.9187044765598,10.702206215934,,,2.638
911727242-985794480-103651,2016,OLIVEN KJØKKEN LAMBERTSETER,1.1.6.2,Restaurants,3013402,LANGBØLGEN 5,59.8730716144305,10.8118449484004,,Lambertseter Senter,3.033
991703098-991708405-106242,2016,HARBOUR,1.1.6.2,Restaurants,7040908,NEDRE LANGGATE 28 C,59.2662988777557,10.405570166301,,,13.882
995443546-995487209-118426,2016,PERLA MEDITERRANEA,1.1.6.2,Restaurants,3011302,BJERREGAARDS GATE 1,59.923234429214,10.741154291858098,,,0.033
995445476-995454912-114561,2016,PASTA PASTA STADIONPARKEN,1.1.6.2,Restaurants,11031730,JÅTTÅVEIEN,58.914905735477504,5.72938961766234,,Stadionparken,5.528
996445445-996464369-155769,2016,SOLSIDEN HVASSER,1.1.6.2,Restaurants,7230113,FYNVEIEN 7,59.0805844525177,10.4536655820676,,,3.945
916015380-916071108-792322,2016,KAPADOKYA RESTAURANT,1.1.6.2,Restaurants,7040908,STORGATEN 24,59.2665992156343,10.4085298239163,,Farmandstredet,2.112
964165238-972181056-25382,2016,EILEFS LANDHANDLERI,1.1.6.2,Restaurants,3010103,KRISTIAN IVS GATE 1,59.9149183875679,10.7404144849942,,,14.6
992841087-992874260-128650,2016,SOSIALEN,1.1.6.2,Restaurants,3010205,MØLLERGATA 13,59.914528175463296,10.7468331291059,,,13.671
856751252-971633506-23409,2016,MAJOR - STUEN AS,1.1.6.2,Restaurants,1061105,VOLDPORTGATEN 73,59.2032404436633,10.9551690716429,,,9.066
971234091-974858142-36720,2016,RESTAURANT SJØBUA,1.1.6.2,Restaurants,9260212,STRANDGATA 8,58.2484870503197,8.378111892856388,,,6.8
984369204-917025363-832132,2016,SJØKANTEN PUB & RESTAURANT,1.1.6.2,Restaurants,10180214,TRYSNESVEIEN,58.0562788953489,7.70922753579755,,,0.481
996379396-997673018--997673018,2016,AULI PIZZA OG GRILL AS,1.1.6.2,Restaurants,2350206,RINGVEGEN 3,60.1421599508074,11.1766755855229,,Jessheim Storsenter,0.0
998783887-998933919-456937,2016,NIKKERS,1.1.6.2,Restaurants,5010604,STORGATA 84 B,61.1170139901238,10.464716708185,,Mesna Senter,18.114
999586961-911720426-434043,2016,NYDALEN BRYGGERI & SPISERI,1.1.6.2,Restaurants,3010101,RÅDHUSGATA 32,59.910204954191705,10.738915913187098,,,30.641
912515494-912531635--912531635,2016,AL-BARKAT AS,1.1.6.2,Restaurants,3013912,LØRENSKOGVEIEN 50,59.9430697589741,10.9415710263519,,,0.124
914576032-992352035-113590,2016,AFAC INVEST AS,1.1.6.2,Restaurants,12010105,STRANDGATEN 190,60.396213886587496,5.31529741279615,,,6.936
996692485-996753719-153521,2016,HUITFELDTS STUER,1.1.6.2,Restaurants,16011404,VERFTSGATA 4,63.4334019808749,10.4096197922983,,,0.483
887192162-980021688-61738,2016,GRILLRESTAURANT BÅRDSHAUG,1.1.6.2,Restaurants,16380201,LØYPSTRENGEN 12,63.295857612267504,9.851638866050688,,,10.095
917994005-879686822-28728,2016,SHALIMAR INDISK RESTAURANT,1.1.6.2,Restaurants,1040502,STORGATA 4,59.4344892054411,10.6558350305721,,,0.319
988592331-985860270-107590,2016,TJUVHOLMEN KRO BRYGGA,1.1.6.2,Restaurants,4030406,TORGGATA 53,60.7951204900099,11.0722932691527,,Kvartal 48,2.886
993954004-993998656-102405,2016,LYSTGAARDEN BAR & RESTAURANT,1.1.6.2,Restaurants,15340203,SYNNALANDSVEGEN,62.6028326124557,6.438254375134091,,,10.366
998746736-998757800-308814,2016,LA CUCINA AS,1.1.6.2,Restaurants,3010308,HOLBERGS PLASS 4,59.9191617749076,10.733964152151,,,5.214
911578476-811614742-625386,2016,DELICATESSEN AKER BRYGGE,1.1.6.2,Restaurants,3010304,HOLMENS GATE 2,59.9106233528858,10.7269017692412,DELICATESSEN,Aker Brygge,31.213
915255752-972290726-23649,2016,MARTHABRYGGA AS,1.1.6.2,Restaurants,16240101,SJØGATA,63.7583253849683,10.0599315172205,,,2.889
